id,Address,Latitude,Longitude
50425,,,
44452,1 YESLER WAY,47.60157484,-122.33574983
23302,10 BOSTON ST,47.63856664,-122.35646642
47964,10 BROAD ST,47.61555738,-122.35501194
49998,10 DENNY WAY,47.61885308,-122.35637705
46642,10 E ALLISON ST,47.64954174,-122.32502958
49720,10 E ROANOKE ST,47.64337173,-122.32907629
22296,10 HARRISON ST,47.62230575,-122.35654319
48655,10 RAYE ST,47.64346526,-122.35634673
24313,100 1ST AVE S,47.60148186,-122.33380268
4828,100 20TH AVE E,47.61866122,-122.30573103
48694,100 23RD AVE S,47.60104961,-122.30155991
38686,100 4TH AVE N,47.61915912,-122.34858677
38007,100 BROADWAY E,47.61887683,-122.32060988
43290,100 DENNY WAY,47.6187587,-122.35524764
49512,100 DEXTER AVE N,47.61917628,-122.34193448
27109,100 E EDGAR ST,47.64466664,-122.32729999
49309,100 ELLIOTT AVE W,47.61916055,-122.35872783
16631,100 MELROSE AVE E,47.61882635,-122.32760221
48700,100 MERCER ST,47.62483942,-122.35442946
7154,100 N 101ST ST,47.70250731,-122.35793658
49378,100 N 36TH ST,47.65315089,-122.3574304
19074,100 N 70TH ST,47.67968069,-122.3571844
47545,100 N 85TH ST,47.69112475,-122.35734593
7497,100 NE 103RD ST,47.70359616,-122.32783255
3405,100 NE 57TH ST,47.67034423,-122.32804307
35026,100 NW 85TH ST,47.69197153,-122.3587872
22822,100 PREFONTAINE PL S,47.60159676,-122.32916938
21263,100 REPUBLICAN ST,47.62361985,-122.35456609
24327,100 S KING ST,47.5985612,-122.33380513
12980,100 TAYLOR AVE N,47.61890637,-122.34589893
40713,100 THOMAS ST,47.62107289,-122.35519495
36881,100 W HARRISON ST,47.62224993,-122.35851124
45015,100 W MERCER ST,47.62478578,-122.35825276
20545,100 WARD ST,47.62835152,-122.35492335
36482,1000 1ST AVE,47.60505522,-122.33611689
45146,1000 1ST AVE S,47.59403763,-122.33368875
32123,1000 2ND AVE,47.6056731,-122.33512466
50076,1000 4TH AVE,47.6064911,-122.33298287
27408,1000 4TH AVE S,47.59440058,-122.32840515
15997,1000 5TH AVE N,47.62815277,-122.34732276
45070,1000 6TH AVE S,47.59427259,-122.32557966
49788,1000 8TH AVE,47.60850802,-122.32788026
34432,1000 DENNY WAY,47.61907205,-122.33652543
49558,1000 DEXTER AVE N,47.62817641,-122.34213795
27809,1000 E ALOHA ST,47.62701961,-122.31997169
48702,1000 E BOSTON ST,47.63857575,-122.31983433
47065,1000 E PIKE ST,47.61421806,-122.31930989
29258,1000 FAIRVIEW AVE N,47.62799256,-122.33133874
15521,1000 LENORA ST,47.61816194,-122.3363018
33130,1000 N 49TH ST,47.66450461,-122.34584572
41041,1000 N NORTHLAKE WAY,47.64866749,-122.34510785
48569,1000 NE 105TH ST,47.70512732,-122.31752092
30297,1000 NE 135TH ST,47.72859378,-122.31663938
10806,1000 NE 45TH ST,47.66151849,-122.31711491
25017,1000 QUEEN ANNE AVE N,47.62828641,-122.3563667
45040,1000 S HENDERSON ST,47.5232333,-122.31982043
33681,1000 S MYRTLE ST,47.53965831,-122.31994435
45896,1000 S WELLER ST,47.59774785,-122.31937089
33124,1000 SPRING ST,47.61011536,-122.32623295
45996,1000 UNION ST,47.61233227,-122.32896661
46448,1000 VIRGINIA ST,47.61741741,-122.33492177
47179,1000 WESTERN AVE,47.60470803,-122.33740579
47220,10000 47TH AVE SW,47.51376496,-122.39258614
45802,10000 51ST AVE SW,47.51380186,-122.39442407
48438,10000 AURORA AVE N,47.70158196,-122.34412372
30477,10000 LAKE SHORE BLVD NE,47.70116767,-122.27337389
15636,10000 RAINIER AVE S,47.51216033,-122.24778573
40089,10000R LAKE SHORE BLVD NE,47.70112833,-122.27353208
44245,10001 5TH AVE NE,47.70178813,-122.32353047
38629,10001 68TH AVE S,47.51147178,-122.24858897
47618,10001 LAKE CITY WAY NE,47.70151515,-122.30297884
40363,10001R 75TH AVE S,47.51109843,-122.24111987
22538,10002 17TH AVE NE,47.70141813,-122.30941508
6663,10002 AURORA AVE N,47.7022429,-122.34410901
5351,10003 47TH AVE SW,47.51366535,-122.39364803
23624,10003 9TH AVE NW,47.70168276,-122.36904634
46861,10003 GREENWOOD AVE N,47.70162616,-122.3558541
3064,10003 HOLMAN RD NW,47.70202093,-122.36255847
9616,10004 49TH AVE NE,47.70132144,-122.27503017
25531,10004 AURORA AVE N,47.70308039,-122.34412277
44671,10004 VINTON CT NW,47.70190547,-122.38283656
22123,10005 46TH AVE S,47.51095404,-122.27554586
34308,10005 7TH AVE NW,47.70253537,-122.36421002
10492,10005 BAYARD AVE NW,47.70175166,-122.38124808
29827,10005 HOLMAN RD NW,47.70202093,-122.36255848
44502,10007 31ST AVE SW,47.51345102,-122.37212199
44517,10007 51ST AVE SW,47.51364451,-122.39528655
39750,10007 RADFORD AVE NW,47.70165639,-122.38225807
41119,10008 RAINIER AVE S,47.51205822,-122.24754718
44746,10009 14TH AVE NW,47.70190038,-122.37443585
46963,10009 AURORA AVE N,47.70175041,-122.34496091
16878,10009 CALIFORNIA AVE SW,47.51345806,-122.38761443
43609,1001 1ST AVE,47.60480378,-122.33681077
37387,1001 3RD AVE,47.60582637,-122.33465269
41874,1001 3RD AVE W,47.62800426,-122.36088884
49960,1001 4TH AVE,47.60615304,-122.33389399
42588,1001 6TH AVE S,47.59416832,-122.32671951
48405,1001 ALASKAN WAY,47.60410271,-122.33959335
4791,1001 BOYLSTON AVE,47.61074717,-122.32260224
50016,1001 BROADWAY,47.61141658,-122.32136945
12610,1001 E JAMES WAY,47.60756461,-122.31858461
13555,1001 E JOHN ST,47.61977761,-122.31919819
22630,1001 E PINE ST,47.61510641,-122.31899815
48676,1001 FAIRVIEW AVE N,47.62902532,-122.33174325
2895,1001 JAMES ST,47.60601002,-122.32317409
46070,1001 LENORA ST,47.61789644,-122.3357406
49557,1001 MADISON ST,47.60886761,-122.32561828
28566,1001 MCGILVRA BLVD E,47.62752971,-122.28180064
22633,1001 QUEEN ANNE AVE N,47.6282534,-122.35715346
49234,1001 S JACKSON ST,47.59865613,-122.31938623
41650,1001 S WELLER ST,47.59724924,-122.31947714
42876,1001 STURGUS AVE S,47.5937049,-122.31450253
50374,1001 SW KLICKITAT WAY,47.56986711,-122.34897388
47273,1001 WARREN AVE N,47.62839,-122.3543326
39661,1001 WESTERN AVE,47.60449295,-122.33804582
46105,1001 WESTLAKE AVE N,47.6282368,-122.34074547
8832,10010 8TH AVE NE,47.70170404,-122.32019297
15161,10010 DENSMORE AVE N,47.70184781,-122.33673242
41998,10010 RAINIER AVE S,47.51170051,-122.24764809
13198,10011 21ST AVE NE,47.70159768,-122.30613712
24326,10011 42ND AVE SW,47.51341577,-122.38625763
9855,10011 61ST AVE S,47.51125335,-122.25740449
18103,10011 63RD AVE S,47.51128467,-122.25498554
27584,10011 WALLINGFORD AVE N,47.70181358,-122.3361818
41071,10012 9TH AVE NW,47.70204385,-122.36846098
21309,10012 DENSMORE AVE N,47.70187033,-122.33705028
31172,10013 13TH AVE NW,47.70188311,-122.37305362
22227,10013 HOLMAN RD NW,47.70202093,-122.36255848
31926,10015 42ND AVE SW,47.51331107,-122.38620247
46876,10015 ASHWORTH AVE N,47.70193847,-122.33973624
26336,10015 BEACON AVE S,47.51071909,-122.27245404
36491,10015 DENSMORE AVE N,47.70198696,-122.33783008
40386,10015 MARY AVE NW,47.70191692,-122.3757856
27175,10015 WALLINGFORD AVE N,47.70186195,-122.33651104
34145,10016 12TH AVE NE,47.70177864,-122.31480999
50098,10016 38TH AVE NE,47.70162937,-122.28776465
39133,10016 51ST AVE SW,47.51349789,-122.3944925
42027,10016 WATERS AVE S,47.51183635,-122.25163478
41724,10017 13TH AVE NW,47.70206386,-122.37305572
21980,10018 9TH AVE NW,47.70216975,-122.36847346
46561,10019 BEACON AVE S,47.51045064,-122.27216981
1398,10019 CALIFORNIA AVE SW,47.5132042,-122.38758503
8419,10019 RICHWOOD AVE NW,47.70215513,-122.38718651
22988,10019 VALMAY AVE NW,47.70208329,-122.38010601
10422,1001R N NORTHLAKE WAY,47.64829143,-122.34404866
41149,1001S ALASKAN WAY S,47.59429694,-122.33596488
5213,1002 2ND AVE,47.60522907,-122.33510702
8954,1002 36TH AVE E,47.62758278,-122.28653309
48449,1002 AIRPORT WAY S,47.59394794,-122.32453022
16639,1002 E SENECA ST,47.61244372,-122.31915237
45199,1002 N 39TH ST,47.6542541,-122.34574119
13453,1002 NE 80TH ST,47.68692289,-122.31738743
21440,1002 VALLEY ST,47.62637298,-122.33658728
12176,10020 BEACON AVE S,47.51047355,-122.27128435
28037,10020 SAND POINT WAY NE,47.70176311,-122.27714764
25210,10021 46TH AVE NE,47.70181361,-122.27926437
44908,10021 7TH AVE NW,47.70305009,-122.36473363
15838,10021 HOLMAN RD NW,47.70202093,-122.36255848
44181,10021 MARINE VIEW DR SW,47.51314905,-122.39143152
16183,10022 51ST AVE SW,47.51328403,-122.3944214
38024,10022 ASHWORTH AVE N,47.70213636,-122.33899092
8417,10022 STONE AVE N,47.70212898,-122.3416623
1355,10023 VINTON CT NW,47.70246558,-122.38255396
25816,10024 21ST AVE NE,47.70196287,-122.30564066
24275,10024 65TH AVE S,47.51122192,-122.2521031
25284,10025 32ND AVE NE,47.7018967,-122.29443805
4283,10025 ASHWORTH AVE N,47.70221475,-122.33957272
9712,10026 36TH AVE NE,47.70197533,-122.28912535
35545,10026 40TH AVE SW,47.51297122,-122.3828861
35797,10027 CALIFORNIA AVE SW,47.51299665,-122.38761642
24984,10027 RICHWOOD AVE NW,47.70232303,-122.38708099
11416,10027 SAND POINT WAY NE,47.70196074,-122.27806771
21477,10028 RAVENNA AVE NE,47.70188547,-122.29887865
29064,10029 37TH AVE SW,47.51297417,-122.37926863
43096,10029 ASHWORTH AVE N,47.70232321,-122.33959971
9499,10029 VALMAY AVE NW,47.7023389,-122.37976465
29073,1003 32ND AVE E,47.62764539,-122.29122831
5128,1003 36TH AVE E,47.62761377,-122.28718441
41501,1003 6TH AVE S,47.59416832,-122.32671951
8873,1003 ALASKAN WAY,47.60410271,-122.33959335
32672,1003 N MOTOR PL,47.65852291,-122.34542111
27774,1003 NW 56TH ST,47.66938733,-122.36972537
27822,1003 NW 65TH ST,47.67584559,-122.37003731
3775,10030 31ST AVE SW,47.5128311,-122.37168698
7965,10030 43RD PL NE,47.70255743,-122.28346703
17535,10030 59TH AVE S,47.5108704,-122.25876978
27585,10030 CALIFORNIA AVE SW,47.51288395,-122.38697363
45391,10030 RIVIERA PL NE,47.70195131,-122.27343545
3548,10031 30TH AVE SW,47.51274678,-122.37134002
6577,10031 33RD AVE SW,47.5128187,-122.37437992
47254,10033 29TH AVE NE,47.70202359,-122.29726951
25453,10033 63RD AVE S,47.51067686,-122.25500696
34231,10033B 61ST AVE S,47.51092482,-122.25798336
18443,10034 40TH AVE SW,47.51274829,-122.38289793
17529,10034 59TH AVE S,47.51082,-122.25846855
17528,10036 59TH AVE S,47.51069908,-122.25869942
44971,10036 RAINIER AVE S,47.51139308,-122.24668593
48425,10036 VALMAY AVE NW,47.702085,-122.37910658
37355,10037 39TH AVE SW,47.51264193,-122.38210971
29949,10037 40TH AVE SW,47.51265425,-122.38344949
31747,10037 47TH AVE SW,47.51288057,-122.39333722
991,10037 61ST AVE S,47.51058683,-122.25734335
14858,10037 INTERLAKE AVE N,47.70255029,-122.34094507
29233,10038 65TH AVE S,47.51083792,-122.25208039
28857,10039 48TH AVE NE,47.70229408,-122.27681451
6850,10039 49TH AVE NE,47.70225543,-122.27578332
40994,10039 51ST AVE SW,47.51284308,-122.39485789
38970,10039 DENSMORE AVE N,47.70265141,-122.33825961
10964,1004 NE 50TH ST,47.66529781,-122.31719763
29021,1004 S CLOVERDALE ST,47.52670059,-122.32000488
9219,1004 W BERTONA ST,47.65063375,-122.37054982
3919,10040 36TH AVE NE,47.70230626,-122.28904907
3103,10041 40TH AVE NE,47.70226065,-122.28571971
18487,10041 41ST AVE SW,47.51255303,-122.38483219
33828,10041 64TH AVE S,47.51041536,-122.2539377
39573,10041 ARROWSMITH AVE S,47.51166911,-122.25047591
43030,10042 40TH AVE SW,47.51254378,-122.38280435
4648,10042 43RD PL NE,47.70271898,-122.28395054
8173,10044 12TH AVE NW,47.70284406,-122.37109702
29705,10044 14TH AVE NW,47.70288498,-122.37376657
4303,10045 37TH AVE SW,47.5124907,-122.3793847
30124,10045 40TH AVE SW,47.5124336,-122.38341102
1258,10045 48TH AVE NE,47.70247622,-122.27676818
6340,10045 49TH AVE NE,47.70247136,-122.2756302
39572,10045 ARROWSMITH AVE S,47.51157883,-122.2503663
27438,10045 INTERLAKE AVE N,47.70278313,-122.34094617
21957,10046 38TH AVE NE,47.70243429,-122.28775164
43873,10047 12TH AVE NW,47.70287247,-122.37167896
2424,10047 32ND AVE NE,47.702486,-122.29448359
38058,10048 41ST AVE SW,47.51221278,-122.3841764
36088,10049 COLLEGE WAY N,47.70293779,-122.33474499
34453,1005 E ROY ST,47.62517872,-122.31920078
44106,1005 E SPRUCE ST,47.60335663,-122.31887398
45380,1005 NE 72ND ST,47.68065321,-122.31706207
46593,1005 S KING ST,47.59812192,-122.31922198
20978,1005 S WASHINGTON ST,47.60069899,-122.31911626
48946,1005 SPRING ST,47.60958782,-122.32647633
48377,1005 TERRACE ST,47.60445762,-122.3217291
9592,10050 40TH AVE SW,47.51231331,-122.38282369
3897,10050 42ND AVE SW,47.51226283,-122.3856033
9335,10051 14TH AVE NW,47.70299935,-122.37460308
13317,10052 35TH AVE NE,47.70267591,-122.29047343
19276,10053 12TH AVE NW,47.70304621,-122.37168881
28966,10054 64TH AVE S,47.51008617,-122.25327523
4568,10054 WATERS AVE S,47.51113222,-122.25053762
23504,10055 65TH AVE S,47.51014474,-122.25258935
42808,10057 65TH AVE S,47.51004341,-122.25258083
23906,10057 ARROWSMITH AVE S,47.51134719,-122.25002836
47806,10058 32ND AVE NE,47.70278939,-122.29386348
7834,1006 N 47TH ST,47.66307723,-122.34573296
34206,1006 SPRING ST,47.60981277,-122.32688249
14494,1006 SW HENDERSON ST,47.52304412,-122.34837344
33311,1006 TURNER WAY E,47.62766919,-122.30197925
6059,10061 65TH AVE S,47.50988805,-122.25269736
42267,10062 9TH AVE NW,47.70337784,-122.36848022
43317,10063 DENSMORE AVE N,47.70303587,-122.33777283
11989,1007 15TH AVE E,47.62799857,-122.31287538
26635,1007 1ST AVE,47.60480378,-122.33681077
34679,1007 20TH AVE S,47.59349442,-122.30650534
6609,1007 N 49TH ST,47.66411178,-122.34572772
28876,1007 NW 65TH ST,47.67582732,-122.37017209
10469,1007 NW 67TH ST,47.6776433,-122.37023303
35610,1007 NW 80TH ST,47.68674193,-122.36983029
33888,1007 S WELLER ST,47.59740091,-122.31924659
48849,1007 STEWART ST,47.61632879,-122.33305228
34410,1007 W NEWELL ST,47.644179,-122.37061302
36349,10070 65TH AVE S,47.50990853,-122.25213511
20882,1008 DEXTER AVE N,47.6281007,-122.3422516
7333,1008 N 109TH ST,47.70822046,-122.34550632
33506,1008 S WARSAW ST,47.54420485,-122.31955443
36190,1008 W ARMOUR ST,47.64518776,-122.37078558
35042,1008 WESTERN AVE,47.60470803,-122.33740579
10420,1009 36TH AVE E,47.62775945,-122.2871812
11818,1009 37TH AVE E,47.62772363,-122.28585086
26669,1009 5TH AVE W,47.62805575,-122.36346606
19626,1009 8TH AVE N,47.62853151,-122.34151383
40665,1009 E PIKE ST,47.61376777,-122.31888241
18949,1009 E SPRUCE ST,47.60303143,-122.31892816
37479,1009 E UNION ST,47.61270138,-122.31892961
43453,1009 W HOWE ST,47.63572195,-122.37094868
27915,1009 WESTERN AVE,47.60449295,-122.33804582
43601,101 1ST AVE S,47.60160713,-122.33449448
46394,101 23RD AVE S,47.6014574,-122.30270379
42721,101 25TH AVE,47.60180947,-122.30025048
9760,101 32ND AVE E,47.61901614,-122.29152183
27322,101 BROADWAY E,47.61891925,-122.32114133
11766,101 DENNY WAY,47.6184506,-122.35476894
29806,101 ELLIOTT AVE W,47.61891226,-122.35959162
17355,101 JOHN ST,47.61946557,-122.35493212
45288,101 LEE ST,47.63087079,-122.35535034
8400,101 M L KING JR WAY E,47.61909128,-122.29645714
11406,101 N 105TH ST,47.70494424,-122.35794081
45656,101 NE 55TH ST,47.66846975,-122.32802605
5026,101 NE 62ND ST,47.67340583,-122.32792692
40480,101 NE NORTHLAKE WAY,47.6533135,-122.32705273
27415,101 NICKERSON ST,47.6484161,-122.35542326
32567,101 NW 101ST ST,47.70201236,-122.35834459
43234,101 NW 35TH ST,47.65197973,-122.35790373
14826,101 NW 58TH ST,47.67053368,-122.35793527
13148,101 NW 83RD ST,47.68893449,-122.35818962
45423,101 NW 85TH ST,47.69034191,-122.35843535
39712,101 PINE ST,47.60973137,-122.34039035
48914,101 PREFONTAINE PL S,47.60138185,-122.32998132
47473,101 S JACKSON ST,47.59895972,-122.3337999
42865,101 S MAIN ST,47.59979439,-122.33381028
49863,101 STEWART ST,47.61029752,-122.34090346
33639,101 TAYLOR AVE N,47.61890203,-122.34672036
2932,101 W LEE ST,47.63111093,-122.35815231
46915,101 W MERCER ST,47.62432479,-122.35833993
48175,101 WESTLAKE AVE N,47.61887749,-122.33885567
37011,101 YESLER WAY,47.60148186,-122.33380268
13427,1010 5TH AVE N,47.62843471,-122.34733051
7839,1010 8TH AVE S,47.59393361,-122.32212452
44365,1010 E REPUBLICAN ST,47.6233087,-122.31934107
11413,1010 MARION ST,47.60866604,-122.32487865
10931,1010 NW 83RD ST,47.68889405,-122.36987669
13984,1010 S DEARBORN ST,47.5960006,-122.31883043
41770,1010 SPRING ST,47.60989708,-122.32660929
29175,1010 SW PORTLAND ST,47.5334793,-122.34861047
5362,1010 TAYLOR AVE N,47.62836358,-122.34604561
21732,1010 VALLEY ST,47.62648402,-122.33574585
7954,1010 WESTERN AVE,47.60470803,-122.33740579
42143,10100 51ST AVE SW,47.51290789,-122.39403605
37220,10100 MARINE VIEW DR SW,47.51282133,-122.39053269
24095,10101 RADFORD AVE NW,47.70256367,-122.38236575
11425,10101R 72ND AVE S,47.51054196,-122.24384971
24418,10104 3RD AVE NE,47.70222085,-122.32533413
10962,10106 3RD AVE NE,47.70221502,-122.3253195
8790,10108 34TH AVE SW,47.51259792,-122.37487452
17165,10109 AURORA AVE N,47.7024236,-122.34501665
40098,10109 GREENWOOD AVE N,47.70251949,-122.35580285
28867,10109 RENTON AVE S,47.51029064,-122.26005081
2630,1011 32ND AVE E,47.62787211,-122.29119245
18826,1011 BELMONT AVE E,47.62741836,-122.32652618
48445,1011 E PIKE ST,47.61376777,-122.31888241
43323,1011 E TERRACE ST,47.60504323,-122.31849881
10328,1011 MERCER ST,47.6242456,-122.33647084
27710,1011 NE 103RD ST,47.7028725,-122.31718946
49172,1011 PIKE ST,47.61301769,-122.3293033
38356,1011 S WELLER ST,47.59718925,-122.31895986
43408,1011 SW KLICKITAT WAY,47.56986711,-122.34897388
11246,1011 W GALER ST,47.6321406,-122.37099107
49486,1011 WESTERN AVE,47.60449295,-122.33804582
7680,10110 GREENWOOD AVE N,47.7026942,-122.35506018
44095,10110 RADFORD AVE NW,47.70232279,-122.38159902
18301,10111 32ND PL SW,47.51229627,-122.37319818
17588,10111 51ST AVE SW,47.51270232,-122.39463978
46147,10112 RAINIER AVE S,47.51173457,-122.24547949
16330,10113 34TH AVE SW,47.5125,-122.37549446
34157,10113 RADFORD AVE NW,47.70270669,-122.38201139
47034,10115 GREENWOOD AVE N,47.70281714,-122.35624879
47022,10115 MARINE VIEW DR SW,47.51250291,-122.39132337
47147,1012 1ST AVE,47.60528409,-122.33628113
31789,1012 26TH AVE E,47.62786908,-122.29851025
48043,1012 BELMONT AVE E,47.62764043,-122.32607834
28652,1012 NE 55TH ST,47.66876791,-122.31676011
28748,1012 NE 63RD ST,47.67435428,-122.31673967
17465,1012 NE 71ST ST,47.68035545,-122.31681258
6948,1012 NE 94TH ST,47.69705864,-122.31695723
32812,1012 QUEEN ANNE AVE N,47.62848039,-122.3564604
30927,1012 W RAYE ST,47.64325972,-122.37085901
44111,10120 HOLYOKE WAY S,47.51036076,-122.24909853
40412,10123 66TH AVE S,47.51061995,-122.25147551
15053,10123 CORNELL AVE S,47.51035745,-122.24573299
41788,10124 66TH AVE S,47.51037107,-122.25091649
40171,10124 WATERS AVE S,47.51000172,-122.24968401
424,10126 66TH AVE S,47.51017171,-122.25093357
1842,10129 66TH AVE S,47.51042357,-122.25146681
22702,1012C NE 105TH ST,47.70564466,-122.31694782
48592,1013 8TH AVE,47.60801475,-122.32911502
31298,1013 AURORA AVE N,47.62850218,-122.34406654
42935,1013 E PIKE ST,47.61393761,-122.3187682
35594,1013 NE 45TH ST,47.66099281,-122.31707108
1299,10132 RAINIER AVE S,47.51138639,-122.24476981
39341,1014 1ST AVE S,47.59363838,-122.33372637
48931,1014 E REPUBLICAN ST,47.62328551,-122.31919904
27618,1014 E ROY ST,47.62556084,-122.31958107
35480,1014 E TERRACE ST,47.60534281,-122.31866258
30756,1014 LAKEVIEW BLVD E,47.62870209,-122.3262299
3282,1014 NE 100TH ST,47.7014783,-122.31686557
41954,1014 NE 103RD ST,47.70328402,-122.31707829
29098,1014 NE 88TH ST,47.69252654,-122.31695554
29668,1014 SW PORTLAND ST,47.53350409,-122.34878719
47490,1014 W NEWELL ST,47.6444831,-122.37089392
25098,10140 32ND PL SW,47.51209348,-122.372682
23676,10147 HOLMAN RD NW,47.7033903,-122.35925243
26581,1015 34TH AVE E,47.62784733,-122.28850689
11509,1015 36TH AVE E,47.62790566,-122.28717586
23832,1015 37TH AVE E,47.62789811,-122.28587869
14884,1015 3RD AVE,47.60582637,-122.33465269
33644,1015 8TH AVE N,47.62853151,-122.34151383
6203,1015 E JEFFERSON ST,47.60605235,-122.31868606
24456,1015 E NEWTON ST,47.63710034,-122.31934469
8586,1015 E SHELBY ST,47.64673106,-122.31877027
8996,1015 NE 113TH ST,47.71034897,-122.31682944
8770,1015 NE 90TH ST,47.69377283,-122.31699195
29453,1015 NW 83RD ST,47.68859954,-122.37017818
45981,1015 STEWART ST,47.616554,-122.33283683
5377,1015 W CROCKETT ST,47.63760526,-122.3711639
3609,1015 WESTERN AVE,47.60449295,-122.33804582
13078,10154 RAINIER AVE S,47.51136661,-122.2440603
46346,1016 1ST AVE S,47.59363838,-122.33372637
3372,1016 2ND AVE N,47.62859953,-122.3524944
26678,1016 6TH AVE N,47.62854217,-122.34461446
36373,1016 E HAMLIN ST,47.64578955,-122.31869062
37119,1016 E HARRISON ST,47.62215842,-122.31909825
23382,1016 E LYNN ST,47.6397289,-122.31928804
46775,1016 E PIKE ST,47.61435647,-122.31860071
10929,1016 E SHELBY ST,47.64707949,-122.31882777
27658,1016 JEFFERSON ST,47.60571216,-122.32246057
28747,1016 NE 63RD ST,47.67436068,-122.31659174
32264,1016 NE 72ND ST,47.6810405,-122.31671423
31552,1016 NE 95TH ST,47.69784287,-122.31673646
5813,1016 NW 87TH ST,47.69224289,-122.37013323
7099,1016 REPUBLICAN ST,47.62334513,-122.33620731
40020,1016 SW KENYON ST,47.53211314,-122.34889197
39897,1016 W BOTHWELL ST,47.6439203,-122.37101554
23538,1016 WASHINGTON PL E,47.62799141,-122.29260574
38470,1017 CALIFORNIA LN SW,47.59394345,-122.38733391
30684,1017 E BLAINE ST,47.63486222,-122.31930391
26358,1017 E HARRISON ST,47.62176171,-122.31914443
41626,1017 E PIKE ST,47.6139111,-122.31853091
47394,1017 E UNION ST,47.6127059,-122.31866414
34719,1017 LAKE WASHINGTON BLVD E,47.6267429,-122.29395632
28998,1017 MINOR AVE,47.61023912,-122.3248562
31999,1017 NE 97TH ST,47.69926981,-122.31680694
44888,1017 S JACKSON ST,47.59901316,-122.31882529
1746,1017 S ROSE ST,47.52883618,-122.31941541
2493,1017 W ARMOUR ST,47.64485121,-122.37103746
20623,1017 W EWING ST,47.65461822,-122.37006974
48498,1017 W RUFFNER ST,47.65210421,-122.37094505
10483,1018 E REPUBLICAN ST,47.62329396,-122.31905714
40973,1018 E SENECA ST,47.61237859,-122.31848076
37705,1018 NE 103RD ST,47.70328593,-122.31691863
3546,1018 NE 61ST ST,47.67278825,-122.31644624
28746,1018 NE 63RD ST,47.67435835,-122.31645137
15364,1018 NE 69TH ST,47.67891497,-122.31652408
31504,1018 NE 88TH ST,47.69241862,-122.31680682
11809,1018 NW 130TH ST,47.72355374,-122.37035788
41719,1018 SENECA ST,47.61075689,-122.32690826
47053,1018 VALLEY ST,47.62637298,-122.33658728
10288,1019 20TH AVE S,47.59319673,-122.30647959
45726,1019 36TH AVE E,47.62805052,-122.28721667
43014,1019 8TH AVE N,47.62853151,-122.34151383
38841,1019 CALIFORNIA LN SW,47.59377816,-122.38767204
9356,1019 N 49TH ST,47.6640868,-122.34521669
9757,1019 NE 104TH ST,47.70372173,-122.31699584
19509,1019 NE 68TH ST,47.67783462,-122.31645589
24734,1019 NE 96TH ST,47.69832991,-122.31677219
46676,1019 STURGUS AVE S,47.59346828,-122.31432085
27595,1019 TERRY AVE,47.60933047,-122.32714503
48545,1019 W EWING ST,47.65461822,-122.37006974
12054,102 10TH AVE,47.60187628,-122.31907618
36863,102 1ST AVE S,47.60148186,-122.33380268
47705,102 21ST AVE E,47.61863053,-122.30450986
46425,102 30TH AVE,47.60183955,-122.29352524
12038,102 BROADWAY,47.60187665,-122.32030932
20411,102 CHERRY ST,47.60284627,-122.33408528
38397,102 E HAMLIN ST,47.64579285,-122.32676602
4307,102 N 100TH ST,47.70164798,-122.35783917
32616,102 N 59TH ST,47.67201778,-122.35752126
50125,102 N 73RD ST,47.68201223,-122.35775196
27002,102 N 77TH ST,47.68494904,-122.35776558
20737,102 NW 35TH ST,47.65240438,-122.35791042
41352,102 NW 45TH ST,47.66169261,-122.35805725
31003,102 NW 73RD ST,47.68200555,-122.35819376
5434,102 NW 95TH ST,47.69805165,-122.35833123
43226,102 OCCIDENTAL AVE S,47.60146946,-122.3324974
44913,1020 37TH AVE E,47.62796794,-122.28488666
5517,1020 4TH AVE S,47.59330607,-122.32785007
4143,1020 5TH AVE N,47.62869012,-122.34719784
17744,1020 BELLEVUE CT E,47.62760121,-122.32692733
41005,1020 E UNION ST,47.61310859,-122.31853304
43109,1020 NE 125TH ST,47.71977237,-122.31747367
29239,1020 NE 63RD ST,47.67435835,-122.31645137
34119,1020 NE 82ND ST,47.68937924,-122.31674409
6214,1020 NW 87TH ST,47.69223143,-122.3702713
8133,1020 SENECA ST,47.61075689,-122.32690826
44153,1020 W BOTHWELL ST,47.64383924,-122.37126769
36254,1020 W HOWE ST,47.63613284,-122.37130088
7480,10200 1ST AVE NE,47.70225455,-122.32726401
20300,10200 GREENWOOD AVE N,47.70306432,-122.35514766
12010,10200 RAINIER AVE S,47.51158723,-122.24354805
35964,10201 GREENWOOD AVE N,47.70345049,-122.35700139
24397,10202 5TH AVE NE,47.70262615,-122.32284487
24406,10202 EVANSTON AVE N,47.70319935,-122.35033046
12042,10202 RAINIER AVE S,47.51140495,-122.24359318
33893,10203 47TH AVE SW,47.51169335,-122.39436085
30383,10203 64TH AVE S,47.50956719,-122.25384365
12012,10204 RAINIER AVE S,47.51122162,-122.24358405
4070,10204 RICHWOOD AVE NW,47.70206776,-122.384684
23140,10205 BELGROVE CT NW,47.70290912,-122.38397369
37082,10206 51ST AVE S,47.50944125,-122.26971392
2327,10206 RAINIER AVE S,47.51121913,-122.24334829
41958,10208 ROOSEVELT WAY NE,47.70258455,-122.3174386
18538,1021 14TH AVE E,47.62823345,-122.31488295
40220,1021 6TH AVE N,47.62866991,-122.34522814
47395,1021 6TH AVE S,47.59366127,-122.32667692
48409,1021 E PINE ST,47.61508287,-122.31846641
45047,1021 MERCER ST,47.62406618,-122.33620465
31716,1021 N 45TH ST,47.66124015,-122.34506034
41016,1021 NE 104TH ST,47.70372911,-122.3168342
24999,1021 NE RAVENNA BLVD,47.67152323,-122.31656583
30600,1021 SW KLICKITAT WAY,47.57049784,-122.34858352
17369,1021 W HOWE ST,47.63578344,-122.3714441
34895,1021 W MCGRAW ST,47.63943939,-122.37136058
43462,10211 CALIFORNIA AVE SW,47.5116785,-122.38751168
41372,10212 RAINIER AVE S,47.51154467,-122.24308198
10739,10213 34TH AVE SW,47.51146693,-122.37526092
43672,10213 41ST AVE SW,47.51165203,-122.38483714
34756,10214 66TH AVE S,47.50928586,-122.25094914
6362,10215 31ST AVE SW,47.51147274,-122.37200115
11283,10215 BELGROVE CT NW,47.70305123,-122.38343699
35481,10215 GREENWOOD AVE N,47.70314601,-122.35605118
6777,10215 LAKE CITY WAY NE,47.70261016,-122.30212543
29029,10216 20TH AVE NE,47.70255799,-122.30675943
15946,10217 42ND AVE SW,47.51152038,-122.38612363
13455,10217 GREENWOOD AVE N,47.70314376,-122.3560501
34677,10218 66TH AVE S,47.5091407,-122.25091864
24159,10219 15TH AVE NE,47.70269561,-122.31270171
39175,10219 RICHWOOD AVE NW,47.70257483,-122.3852559
48485,10219 VALMAY AVE NW,47.70319245,-122.37828226
36972,1022 1ST AVE,47.60542827,-122.33641463
40562,1022 E YESLER WAY,47.60200408,-122.31859738
3337,1022 NE 103RD ST,47.703289,-122.31676336
28744,1022 NE 63RD ST,47.674369,-122.31631915
10825,1022 NE 91ST ST,47.6950483,-122.31661471
39090,1022 NW ELFORD DR,47.72819848,-122.3706657
46542,1022 SW HENDERSON ST,47.52301716,-122.3490939
44490,10220 1ST AVE NW,47.70343515,-122.35766267
6541,10221 8TH AVE NE,47.70281921,-122.3206934
38158,10221 BELGROVE CT NW,47.70318425,-122.38325345
29514,10221 RADFORD AVE NW,47.70326586,-122.38025725
14746,10223 MARINE VIEW DR SW,47.51143494,-122.39037319
22718,10226 47TH AVE SW,47.51140634,-122.39207426
421,10227 42ND AVE SW,47.51131256,-122.38640022
16047,10228 33RD AVE SW,47.5109429,-122.37352208
41480,10229 37TH PL SW,47.51109699,-122.37969389
44257,10229 RENTON AVE S,47.50898562,-122.25815536
19493,10229 RICHWOOD AVE NW,47.70287535,-122.38526965
48637,1023 E ALDER ST,47.60420403,-122.31832613
40793,1023 E PIKE ST,47.6139111,-122.31853091
28043,1023 NE 71ST ST,47.67998908,-122.31638446
37288,10230 47TH AVE SW,47.5112611,-122.39183279
11494,10231 RADFORD AVE NW,47.70300089,-122.37993854
11997,10232 64TH AVE S,47.50873338,-122.25321002
1191,10233 44TH AVE SW,47.51110312,-122.3889789
11015,10233 BELGROVE CT NW,47.70334002,-122.38281329
32396,10233 RICHWOOD AVE NW,47.70304401,-122.38520608
43814,10234 MARINE VIEW DR SW,47.51139509,-122.38940342
11071,10235 38TH AVE SW,47.51097571,-122.38081928
18799,10236 39TH AVE SW,47.51093468,-122.38130882
29542,10236 63RD AVE S,47.50858901,-122.25447627
45763,10237 36TH AVE SW,47.51087672,-122.37742513
15401,1024 15TH AVE E,47.62838903,-122.31225947
47137,1024 31ST AVE E,47.62830637,-122.2916624
29735,1024 CALIFORNIA LN SW,47.59235561,-122.38897745
30428,1024 E PIKE ST,47.614351,-122.31843697
42088,1024 MADISON ST,47.60940526,-122.3255461
47917,1024 N 36TH ST,47.65077337,-122.34490987
44105,1024 S ELMGROVE ST,47.53099538,-122.31937929
43158,1024 S TRENTON ST,47.52497453,-122.3190477
40096,1024 W BOTHWELL ST,47.643784,-122.37129489
30755,1024 WASHINGTON PL E,47.62818444,-122.29293291
27069,10241 CALIFORNIA AVE SW,47.51075446,-122.38761801
39098,10242 32ND AVE SW,47.51047366,-122.37238738
34610,10242 41ST AVE SW,47.51079608,-122.38416222
47109,10242 42ND AVE SW,47.51092971,-122.38519907
13048,10245 35TH AVE SW,47.51079841,-122.37625845
47002,10245 VALMAY AVE NW,47.70382839,-122.3778596
41999,10246 RAINIER AVE S,47.5112938,-122.24176323
20512,10247 37TH AVE SW,47.51058711,-122.37845286
48287,10249 36TH AVE SW,47.51043811,-122.37730558
19726,1025 23RD AVE E,47.62809931,-122.30270501
7918,1025 5TH AVE W,47.62845761,-122.36349532
46799,1025 CALIFORNIA LN SW,47.5932929,-122.38810033
17629,1025 NE 90TH ST,47.69379111,-122.3164717
47405,1025 S ELMGROVE ST,47.53031865,-122.31857222
45293,1025 S KING ST,47.59777605,-122.3184105
42991,1025 STEWART ST,47.616554,-122.33283683
14809,1025 STURGUS AVE S,47.59335299,-122.31413657
5664,10250 RAINIER AVE S,47.51128495,-122.24143097
28104,10251 41ST AVE SW,47.5106442,-122.3847581
26373,1026 34TH AVE E,47.62826456,-122.28782381
43043,1026 NE 125TH ST,47.71976182,-122.31700489
26719,1026 NE 64TH ST,47.6751375,-122.31643605
47474,1026 NE 65TH ST,47.67602564,-122.3163505
27539,10260 47TH AVE SW,47.51048536,-122.39151347
22593,10261 37TH AVE SW,47.5102329,-122.37849893
5050,10262 31ST AVE SW,47.51015948,-122.37129846
32119,10263 37TH PL SW,47.51018369,-122.37964632
43963,10263 MAPLEWOOD PL SW,47.51041126,-122.39296081
6726,1027 36TH AVE E,47.62821869,-122.28721855
38430,1027 BELLEVUE CT E,47.62769014,-122.32734946
1087,1027 HARBOR AVE SW,47.59431354,-122.3846355
16881,1027 NE 72ND ST,47.68069033,-122.31620224
3006,1027 STURGUS AVE S,47.59324701,-122.31387601
6395,1028 15TH AVE E,47.62855296,-122.31227183
48420,1028 1ST AVE S,47.59330844,-122.3336983
24757,1028 E SHELBY ST,47.64709241,-122.31822922
36739,1028 LAKEVIEW BLVD E,47.62879596,-122.32602933
2088,1028 MADISON ST,47.60940526,-122.3255461
47164,1028 NE 94TH ST,47.69690647,-122.31624585
14119,1028 NE RAVENNA BLVD,47.67213436,-122.31609149
23873,1029 37TH AVE E,47.62830287,-122.28596179
44242,1029 NE NORTHGATE WAY,47.70826468,-122.31643362
24058,103 12TH AVE,47.60185619,-122.31704594
41278,103 ALASKAN WAY W,47.61890529,-122.36075824
39477,103 BELLEVUE AVE E,47.6187541,-122.32704538
32625,103 HIGHLAND DR,47.62954614,-122.35498698
23245,103 N 73RD ST,47.68164853,-122.35710899
24462,103 N 84TH ST,47.68964555,-122.35774894
12270,103 N MARKET ST,47.66291804,-122.35751761
41876,103 NE 59TH ST,47.67137335,-122.32795227
33729,103 NEWELL ST,47.64448935,-122.35528975
23677,103 NW 103RD ST,47.70353943,-122.35895885
43806,103 NW 105TH ST,47.70491473,-122.35832289
41117,103 NW 40TH ST,47.65543923,-122.3574516
43529,103 NW 62ND ST,47.67386839,-122.35768483
40190,103 NW 70TH ST,47.67940537,-122.35764202
6443,103 NW 84TH ST,47.68964995,-122.35819685
48020,103 PIKE ST,47.60883611,-122.33952721
10429,1030 39TH AVE E,47.62832829,-122.28236537
29503,1030 ELLIOTT AVE W,47.62829948,-122.37028653
43784,1030 NE 125TH ST,47.71969414,-122.31669246
25107,10300 5TH AVE NE,47.70375668,-122.32251343
44551,10301 BEDFORD CT NW,47.70391985,-122.38517142
18481,10301 GREENWOOD AVE N,47.70384974,-122.35582613
38022,10301 MARY AVE NW,47.70345615,-122.37584831
47267,10302 12TH AVE NW,47.70357986,-122.37115313
20622,10303 13TH AVE NW,47.70352515,-122.37306942
10409,10303 DENSMORE AVE N,47.70344602,-122.33793544
328,10303 MERIDIAN AVE N,47.70349275,-122.33425333
30280,10304 15TH AVE NW,47.70351104,-122.37632649
12329,10304 INTERLAKE AVE N,47.70348847,-122.34031751
45880,10306 MERIDIAN AVE N,47.70349549,-122.33280284
15847,10309 STONE AVE N,47.70360943,-122.34232574
26690,1031 23RD AVE E,47.62837577,-122.30273066
40749,1031 SUMMIT AVE E,47.62800609,-122.3256139
1188,10312 13TH AVE NW,47.70380892,-122.37250127
4251,10312 17TH AVE NE,47.70343456,-122.30921407
48312,10312 35TH AVE NE,47.70348428,-122.29048169
13143,10312 RIVIERA PL NE,47.70326328,-122.2741961
42410,10315 8TH AVE NW,47.70384667,-122.36637838
30160,10317 8TH AVE NE,47.70368958,-122.32076697
32,10318 15TH AVE NW,47.70404637,-122.37637034
12626,10318 39TH AVE NE,47.70357793,-122.28639475
39663,10319 39TH AVE NE,47.70362266,-122.28711759
44511,10319 RAINIER AVE S,47.51051147,-122.24033852
41924,10319 SAND POINT WAY NE,47.703529,-122.27826813
17532,1032 23RD AVE E,47.62844726,-122.30209497
26602,1032 6TH AVE S,47.59364326,-122.32570265
45798,1032 NE 65TH ST,47.67602964,-122.31591278
7733,1032 NE 95TH ST,47.69783964,-122.31625162
47170,1032 S JACKSON ST,47.59950019,-122.31851985
19486,10321 BEDFORD CT NW,47.70428887,-122.3846854
28927,10321 MERIDIAN AVE N,47.70395165,-122.33472139
25863,10322 15TH AVE NE,47.70375377,-122.31213722
29003,10322 15TH AVE NW,47.70420005,-122.37639793
46694,10322 LAKE CITY WAY NE,47.70375372,-122.30137806
48246,10323 9TH AVE NW,47.70403347,-122.36903901
26353,10323 SAND POINT WAY NE,47.70343069,-122.27851098
852,10324 23RD AVE NE,47.70362007,-122.30403423
4815,10324 ASHWORTH AVE N,47.70407789,-122.33864646
33059,10324 VALMAY AVE NW,47.70471666,-122.37723546
4887,10325 32ND AVE NE,47.70386298,-122.29440895
36216,10325 MIDVALE AVE N,47.70404159,-122.34364782
26641,10325 SAND POINT WAY NE,47.70364069,-122.27809438
33110,10326 15TH AVE NW,47.70438984,-122.37637105
42964,10326 46TH AVE NE,47.70375864,-122.27853895
26454,10326 LAKE CITY WAY NE,47.70385835,-122.30129489
18698,10327 36TH AVE NE,47.70378128,-122.28980171
2618,10327 9TH AVE NW,47.70419707,-122.36904695
39014,10327 SAND POINT WAY NE,47.70374174,-122.27792958
11879,10328 23RD AVE NE,47.70374462,-122.30407842
28518,10329 40TH AVE NE,47.70358842,-122.2857978
3962,10329 ASHWORTH AVE N,47.704149,-122.33962666
32977,10329 MERIDIAN AVE N,47.70415,-122.33479583
216,10329 SAND POINT WAY NE,47.703529,-122.27826812
43548,10329 WALLINGFORD AVE N,47.70413403,-122.33601867
10286,1033 NE 123RD ST,47.71739698,-122.31661749
34990,10330 MARY AVE NW,47.70436845,-122.37510096
48758,10330 MERIDIAN AVE N,47.70449716,-122.33273925
19648,10331 15TH AVE NW,47.7042652,-122.37713135
40312,10331 32ND AVE NE,47.70401534,-122.29439132
28235,10331 40TH AVE NE,47.70372307,-122.28580765
22955,10331 FISCHER PL NE,47.70402679,-122.30051431
21194,10332 12TH AVE NW,47.70436118,-122.37113863
2633,10332 DIBBLE AVE NW,47.70434159,-122.36711108
13479,10333 LAKE CITY WAY NE,47.70401974,-122.30221022
39018,10333 SAND POINT WAY NE,47.70391809,-122.27793899
29410,10334 38TH AVE NE,47.70392824,-122.28784931
47516,10334 AURORA AVE N,47.70439656,-122.34439731
12959,10334 LAKE CITY WAY NE,47.70417005,-122.30129805
17699,10335 12TH AVE NW,47.70441875,-122.37172676
30916,10336 INTERLAKE AVE N,47.70436897,-122.34033706
22751,10336 VALMAY AVE NW,47.70502468,-122.37712234
24097,10337 38TH AVE NE,47.70409824,-122.28846106
41257,10337 9TH AVE NW,47.70433466,-122.36902976
27650,10337 ASHWORTH AVE N,47.70436686,-122.33965832
21196,10337 MIDVALE AVE N,47.70437618,-122.34370827
23861,10337 RAVENNA AVE NE,47.70410206,-122.29858858
22655,10338 FISCHER PL NE,47.70404578,-122.29927828
33862,10339 LAKE SHORE BLVD NE,47.7040136,-122.27542965
13965,1034 NE 102ND ST,47.70236543,-122.31621916
42569,1034 NE 103RD ST,47.70334606,-122.31624083
46601,1034 NE 92ND ST,47.6961422,-122.3160946
11612,10342 AURORA AVE N,47.70451426,-122.3442605
27500,10342 MIDVALE AVE N,47.70448959,-122.3430177
15777,10342 RAINIER AVE S,47.51087403,-122.23925642
37771,10343 SAND POINT WAY NE,47.70424503,-122.27804158
38440,10344 15TH AVE NW,47.70471028,-122.3764129
30732,10345 11TH AVE NW,47.70479195,-122.37061624
28173,10346 MIDVALE AVE N,47.70460069,-122.34283803
35571,10346 RAINIER AVE S,47.51082765,-122.23911782
29101,10347 13TH AVE NW,47.70490981,-122.37306508
15419,10347 RAVENNA AVE NE,47.70437998,-122.29837616
28873,10347 WALLINGFORD AVE N,47.70456522,-122.33617583
39488,10348 14TH AVE NW,47.70488739,-122.37383059
43189,10349 8TH AVE NW,47.70460851,-122.36637303
43924,10349 LAKE SHORE BLVD NE,47.7042486,-122.27553275
41494,1035 S DIRECTOR ST,47.52207539,-122.31868298
8722,10351 DIBBLE AVE NW,47.70485087,-122.36771763
27499,10351 FISCHER PL NE,47.70430176,-122.30036897
27888,10352 SAND POINT WAY NE,47.70443535,-122.27741323
43550,1036 NE 67TH ST,47.67755628,-122.31588473
30202,1036 NE 95TH ST,47.69785781,-122.31604765
46117,10360 RIVIERA PL NE,47.70446011,-122.27465812
25517,10361 15TH AVE NW,47.70502468,-122.37712234
18991,10367 RAINIER AVE S,47.51003716,-122.23866527
1402,10369 ASHWORTH AVE N,47.70492489,-122.33955028
26837,1038 34TH AVE E,47.62857971,-122.28775516
2700,1038 NE 127TH ST,47.7214575,-122.31642973
23450,1038 S JACKSON ST,47.59966524,-122.31770819
43058,1039 6TH AVE S,47.59330064,-122.32651315
31018,1039 NE 97TH ST,47.69928521,-122.31607866
46149,10390 RAINIER AVE S,47.51016578,-122.23760366
4621,104 17TH AVE S,47.60140536,-122.30983733
21434,104 19TH AVE E,47.61874357,-122.30688051
14891,104 22ND AVE S,47.60138873,-122.3034577
15919,104 29TH AVE S,47.60149028,-122.29473596
47352,104 N 46TH ST,47.66259484,-122.35753394
9308,104 N 84TH ST,47.69008394,-122.35757196
46202,104 NE 137TH ST,47.72844967,-122.32843361
22888,104 NW 75TH ST,47.68345783,-122.35822812
41613,104 NW 84TH ST,47.69003486,-122.35836609
11188,104 OCCIDENTAL AVE S,47.60146365,-122.3324828
48613,104 PIKE ST,47.60913577,-122.33979665
26138,104 S HORTON ST,47.57459441,-122.33360834
38625,1040 LAKEVIEW BLVD E,47.62917124,-122.32557862
29266,1040 S CLOVERDALE ST,47.52663305,-122.31848314
49056,10400 LAKE CITY WAY NE,47.70428552,-122.3011577
33920,10400 RAINIER AVE S,47.50983652,-122.23710677
41268,10401 40TH AVE SW,47.50990202,-122.38324948
45764,10401 47TH AVE SW,47.50999381,-122.39204315
38121,10401 LAKE CITY WAY NE,47.70452819,-122.30209106
45102,10401 MAPLEWOOD PL SW,47.50998207,-122.39288574
6690,10402 57TH AVE S,47.50804545,-122.26100071
22473,10402 RAINIER AVE S,47.50974535,-122.23693666
41392,10404 34TH AVE SW,47.50959828,-122.37418379
45297,10405 47TH AVE SW,47.5099082,-122.39136332
36822,10405 WATERS AVE S,47.50792165,-122.24982608
47790,10406 GREENWOOD AVE N,47.70460675,-122.35497344
25025,10406 HOLMAN RD N,47.70444401,-122.35599515
11921,10408 RAINIER AVE S,47.50968171,-122.23664794
31203,10409 65TH AVE S,47.50779156,-122.25269876
33170,10409 AURORA AVE N,47.70462432,-122.34507126
11123,1041 MERCER ST,47.62406618,-122.33620465
16566,1041 NE 98TH ST,47.70007799,-122.3158574
43106,1041 S KING ST,47.59816543,-122.31780556
21332,10410 47TH AVE SW,47.50982201,-122.39029673
3041,10410 MARINE VIEW DR SW,47.50973498,-122.38762455
43560,10411 MAPLEWOOD PL SW,47.50977763,-122.39251025
46610,10412 65TH AVE S,47.5077813,-122.25190888
41576,10414 MARINE VIEW DR SW,47.50954833,-122.38758116
32705,10416 5TH AVE NE,47.70440875,-122.32286192
43637,10416 65TH AVE S,47.5076422,-122.25209545
24669,10416 AURORA AVE N,47.70486651,-122.34435985
12171,10416 MAPLEWOOD PL SW,47.50977825,-122.39195369
14724,10417 35TH AVE SW,47.50941566,-122.37626775
15670,10421 39TH AVE SW,47.50938418,-122.38187052
2585,10421 40TH AVE NE,47.70438008,-122.28584556
34495,10422 20TH AVE NE,47.70436043,-122.30674106
16133,10424 64TH AVE S,47.50749823,-122.25334234
47809,10426 59TH AVE S,47.50680295,-122.25914668
24701,10427 60TH AVE S,47.50676197,-122.25865154
15379,10429 39TH AVE SW,47.50921541,-122.38184633
34635,1043 NE 95TH ST,47.69747479,-122.31568315
17122,1043 NE 97TH ST,47.69926332,-122.31587133
9830,1043 S JACKSON ST,47.59892902,-122.31779353
1514,10430 35TH AVE SW,47.50906167,-122.37562785
45020,10430 LAKE CITY WAY NE,47.70463108,-122.30130005
20416,10434 8TH AVE NW,47.70479739,-122.36581517
41293,10436 67TH AVE S,47.50707192,-122.24979617
30620,10438 41ST AVE SW,47.5089128,-122.38402093
31407,10439 42ND AVE SW,47.50894055,-122.38604768
11515,10439 62ND AVE S,47.50712211,-122.25627387
26281,1044 34TH AVE E,47.62873147,-122.28774442
16810,10441 40TH AVE SW,47.50879298,-122.38321052
28109,10444 47TH AVE SW,47.50894152,-122.39023252
43154,10444 CALIFORNIA AVE SW,47.50877136,-122.38682019
25486,10445 42ND AVE SW,47.50875784,-122.38600178
4756,10447 56TH AVE S,47.50691017,-122.26362871
14524,10449 ALDERBROOK PL NW,47.70483526,-122.36540473
34726,1045 6TH AVE S,47.59298436,-122.32631325
30370,1045 NE 103RD ST,47.70292356,-122.31566413
9877,1045 NE 115TH ST,47.71201277,-122.31581153
27580,1045 NE 88TH ST,47.69187511,-122.31569746
14527,10451 ALDERBROOK PL NW,47.70476467,-122.36558189
14525,10453 ALDERBROOK PL NW,47.70493894,-122.3655195
50378,10453 MAPLEWOOD PL SW,47.50862422,-122.39136833
14526,10455 ALDERBROOK PL NW,47.70488868,-122.36563176
6264,10455 MARINE VIEW DR SW,47.50850329,-122.3882822
20093,1046 S KING ST,47.59857453,-122.31751834
43997,10460 47TH AVE SW,47.50861871,-122.38996655
37150,10461 57TH AVE S,47.5065255,-122.26157212
33990,1047 NE 92ND ST,47.69566897,-122.31555627
31183,1048 S DIRECTOR ST,47.52239407,-122.31816105
38388,10481 MAPLEWOOD PL SW,47.50817207,-122.39058208
18624,105 14TH AVE,47.6019206,-122.31439637
12656,105 20TH AVE E,47.6187636,-122.30656425
29353,105 33RD AVE E,47.61858601,-122.29048508
43554,105 5TH AVE S,47.6011292,-122.32786403
24977,105 NW 105TH ST,47.7049239,-122.35851115
14127,105 S MAIN ST,47.59979439,-122.33381028
10006,105 WARREN AVE N,47.61894243,-122.35448384
2893,1050 JAMES ST,47.60642739,-122.32304448
7262,1050 NE 45TH ST,47.66150176,-122.31682607
49575,1050 SW SPOKANE ST,47.57193515,-122.34730545
13285,10500 DAYTON AVE N,47.70524363,-122.35247322
44287,10500 WHITMAN AVE N,47.70522911,-122.34571354
38746,10501 8TH AVE NE,47.70549038,-122.32112056
2089,10501 AURORA AVE N,47.70528034,-122.34514946
49113,10501 GREENWOOD AVE N,47.70530186,-122.35585693
45881,10501 MERIDIAN AVE N,47.70558206,-122.33487757
9680,10502 14TH AVE NW,47.70535969,-122.3738143
43201,10502 LAKE CITY WAY NE,47.70493183,-122.30130602
6011,10503 14TH AVE NW,47.70537096,-122.37439006
47655,10503 19TH AVE NE,47.70496735,-122.30760111
8695,10503 EVANSTON AVE N,,
42783,10503 INTERLAKE AVE N,47.70523952,-122.34090125
48102,10504 AURORA AVE N,47.70540516,-122.34426365
28712,10504 VALMAY AVE NW,47.70541249,-122.37727092
14486,10505 EVANSTON AVE N,47.70545131,-122.35167413
43319,10505 WHITMAN AVE N,47.70532124,-122.34641862
38348,10507 AURORA AVE N,47.70539301,-122.34509768
17236,10508 14TH AVE NW,47.70552894,-122.37381816
42176,10508 DURLAND AVE NE,47.70491651,-122.27666176
8788,10510 SAND POINT WAY NE,47.70499038,-122.27789969
23933,10511 ALTON AVE NE,47.7054336,-122.2815919
8671,10513 VALMAY AVE NW,47.70557649,-122.37783808
40711,10514 39TH AVE NE,47.70529409,-122.2865762
5286,10515 DURLAND AVE NE,47.70490318,-122.27748294
43782,10516 20TH AVE NE,47.70541024,-122.30579085
35448,10519 DURLAND AVE NE,47.7050987,-122.27736722
23986,1052 E GALER ST,47.63246196,-122.31894227
20259,1052 NE 100TH ST,47.70150266,-122.31541051
42995,10520 35TH AVE NE,47.70555504,-122.2905198
41437,10520 EXETER AVE NE,47.70525029,-122.27565813
28961,10520 GREENWOOD AVE N,47.7057619,-122.35500889
43496,10520 RIVIERA PL NE,47.70522616,-122.27496478
17761,10521 MERIDIAN AVE N,47.70598796,-122.33487139
48730,10522 LAKE CITY WAY NE,47.70578572,-122.30107055
41939,10523 3RD AVE NW,47.70597862,-122.36114406
1083,10523 LINDEN AVE N,47.70577502,-122.34778561
45449,10524 20TH AVE NE,47.70551187,-122.30579126
31535,10524 AURORA AVE N,47.70596595,-122.34435819
25824,10525 3RD AVE NW,47.70597862,-122.36114406
16900,10525 DENSMORE AVE N,47.70577652,-122.33823343
41569,10527 EVANSTON AVE N,47.70589889,-122.3517386
37436,10527 VALMAY AVE NW,47.7057382,-122.37811433
807,10528 15TH AVE NW,47.70604218,-122.37631529
14675,10528 MIDVALE AVE N,47.70589788,-122.34299888
25109,10529 9TH AVE NE,47.70576625,-122.31862515
44057,1053 25TH AVE E,47.62833889,-122.30067417
30020,10530 ALTON AVE NE,47.7056082,-122.28106222
11150,10531 EVANSTON AVE N,47.70599311,-122.35173391
9676,10532 12TH AVE NE,47.70583015,-122.31467748
39700,10532 GREENWOOD AVE N,47.7060786,-122.35510825
46678,10539 ALTON AVE NE,47.70584507,-122.28217095
27956,1054 24TH AVE E,47.62856496,-122.30142018
21210,10540 19TH AVE NE,47.70606839,-122.30710465
43608,10541 DENSMORE AVE N,47.70628806,-122.33787213
43383,10543 RAVENNA AVE NE,47.70599613,-122.29710398
29525,10544 RIVIERA PL NE,47.70531614,-122.27507746
17681,10545 41ST PL NE,47.7059967,-122.28378141
13000,10545 GREENWOOD AVE N,47.70640518,-122.3557555
32094,10545 MERIDIAN AVE N,47.70658544,-122.33464478
32277,10545 VALMAY AVE NW,47.70642139,-122.37865787
43570,10546 20TH AVE NE,47.70624342,-122.3054381
18096,10546 23RD AVE NE,47.70625047,-122.30402475
253,10546 AURORA AVE N,47.70640474,-122.34431299
47300,10546 RIVIERA PL NE,47.7054441,-122.27508439
49125,10548 5TH AVE NE,47.70620374,-122.32267168
45053,10549 NORTH PARK AVE N,47.70630213,-122.34907473
32193,1055 E PROSPECT ST,47.62853536,-122.31878472
11429,1055 W WHEELER ST,47.64058086,-122.37096365
31948,10550 LAKE CITY WAY NE,47.70647934,-122.30127018
44552,10550 RIVIERA PL NE,47.7055723,-122.27513543
41407,10552 15TH AVE NW,47.70669754,-122.37641625
48785,10552 GREENWOOD AVE N,47.70656401,-122.35522959
13340,10553 2ND AVE NW,47.70660232,-122.35976841
40529,10554 AURORA AVE N,47.70662004,-122.34441632
17931,10554 DAYTON AVE N,47.7066563,-122.35251625
23754,10556 VALMAY AVE NW,47.7065908,-122.37788979
12457,10559 EVANSTON AVE N,47.70675379,-122.35176021
29519,1056 24TH AVE E,47.62873344,-122.30117664
14099,10562 14TH AVE NW,47.7070267,-122.37378101
6700,10564 5TH AVE NE,47.70676199,-122.32265286
19647,10565 RAVENNA AVE NE,47.70630346,-122.29690164
48533,1057 S DIRECTOR ST,47.52153853,-122.31792445
22696,10570 15TH AVE NW,47.70719791,-122.3763038
34586,10573 14TH AVE NW,47.70723813,-122.37441006
16826,1058 CALIFORNIA LN SW,47.59238822,-122.38846542
42944,1058 E HARRISON ST,47.62212765,-122.31842386
14661,1058 E LYNN ST,47.63972351,-122.31861921
15974,1058 E MERCER ST,47.62442925,-122.31839351
3151,1058 N 39TH ST,47.65408705,-122.34433319
8987,1059 25TH AVE E,47.62850385,-122.30065506
16349,1059 NE 94TH ST,47.6966047,-122.31523364
5285,1059R N NORTHLAKE WAY,47.64839371,-122.34465473
29623,106 18TH AVE,47.6019854,-122.30870828
2491,106 22ND AVE,47.60188006,-122.30335134
43676,106 26TH AVE,47.60196854,-122.29873744
15918,106 29TH AVE S,47.60142018,-122.29473348
11247,106 MADRONA PL E,47.61876174,-122.28489446
40092,106 N 140TH ST,47.73072233,-122.35786891
40059,106 NE 46TH ST,47.66279138,-122.32788908
39884,106 NE 59TH ST,47.67177486,-122.32783942
20270,106 NW 112TH ST,47.71072889,-122.3587024
8947,106 NW 59TH ST,47.67186868,-122.35806888
8472,106 NW 81ST ST,47.68784361,-122.35837638
19650,106 SMITH ST,47.6416193,-122.35516917
19819,10601 RENTON AVE S,47.50605861,-122.25468259
8512,10602 9TH AVE NW,47.705978,-122.3676788
49490,10604 8TH AVE NW,47.70581969,-122.36580937
30436,10604 MARINE VIEW DR SW,47.50811277,-122.38741075
32729,10606 DURLAND AVE NE,47.70566852,-122.27701158
47299,10607 57TH AVE S,47.5056885,-122.26156234
44083,10611 MAPLEWOOD PL SW,47.5076052,-122.39088574
43299,10612 DURLAND AVE NE,47.70580045,-122.27707258
47117,10615 60TH AVE S,47.50556155,-122.25860901
45836,10616 53RD AVE S,47.50555551,-122.26722439
33117,10616 8TH AVE NW,47.70614707,-122.36581678
11839,10616 ALTON PL NE,47.70526291,-122.28016792
17886,10616 BAGLEY AVE N,47.70650262,-122.33237233
16602,10618 10TH PL NE,47.70668319,-122.31639324
30464,10619 17TH AVE NE,47.7061562,-122.31020239
32659,10621 32ND AVE SW,47.50740844,-122.37373045
30728,10622 8TH AVE NW,47.70628688,-122.3658396
48639,10623 57TH AVE S,47.5054245,-122.26162354
31498,10623 RENTON AVE S,47.50556876,-122.25426211
29227,10625 39TH AVE SW,47.50754279,-122.3818285
35983,10625 CULPEPER CT NW,47.70644048,-122.38040762
46986,10625 MARINE VIEW DR SW,47.50748701,-122.38855181
34902,10628 61ST AVE S,47.50535297,-122.25690678
34035,10628 MARINE VIEW DR SW,47.50744682,-122.38736806
18434,10631 8TH AVE NE,47.70660957,-122.32101441
31776,10631 RENTON AVE S,47.50547435,-122.25415481
42226,10634 57TH AVE S,47.5050586,-122.2609969
41124,10635 MARINE VIEW DR SW,47.5070182,-122.38817788
22044,1064 4TH AVE S,47.59264054,-122.3283133
21991,10640 31ST AVE SW,47.50695897,-122.37178413
18696,10643 CULPEPER CT NW,47.70673146,-122.37998556
35381,10644 BARTLETT AVE NE,47.70602437,-122.27989044
33463,10644 MARINE VIEW DR SW,47.50710008,-122.38722168
46118,10644 RIVIERA PL NE,47.70688675,-122.27508129
29075,10647 BARTLETT AVE NE,47.70624674,-122.28063949
34552,10647 MARINE VIEW DR SW,47.50674414,-122.38779474
27599,1065 E PROSPECT ST,47.62840766,-122.31844501
31486,10652 63RD AVE S,47.50534605,-122.25537277
23020,10653 CULPEPER CT NW,47.7071374,-122.3797496
15897,10653 DURLAND AVE NE,47.70673747,-122.27812645
39753,10655 31ST AVE SW,47.50657258,-122.3725434
41943,10662 MARINE VIEW DR SW,47.50678568,-122.38635634
42693,1067 25TH AVE E,47.62871318,-122.30066265
46560,10671 MARINE VIEW DR SW,47.50628905,-122.38577464
1048,10679 63RD AVE S,47.50455445,-122.25478993
40569,1068 25TH AVE E,47.62869446,-122.30007118
4521,107 15TH AVE E,47.61885642,-122.31295513
6473,107 17TH AVE E,47.61880777,-122.31046692
42152,107 20TH AVE E,47.61876455,-122.30635286
45580,107 27TH AVE E,47.61924963,-122.29752759
44039,107 29TH AVE E,47.61924017,-122.29536281
45360,107 N 100TH ST,47.70126643,-122.35759024
16002,107 N 51ST ST,47.66561272,-122.35682374
1314,107 NE 60TH ST,47.67209332,-122.32779762
23675,107 NW 103RD ST,47.70353735,-122.35911395
23405,107 NW 40TH ST,47.65544004,-122.35764574
21339,107 NW 62ND ST,47.67388357,-122.3578646
10319,107 NW 70TH ST,47.67938591,-122.35785473
47457,107 PINE ST,47.60973137,-122.34039035
8227,107 SPRING ST,47.60542827,-122.33641463
46409,107 TOWER PL,47.63070474,-122.35536346
11502,1070 25TH AVE E,47.62879543,-122.30006151
49724,10700 5TH AVE NE,47.70708561,-122.32252804
9690,10700 EXETER AVE NE,47.70783893,-122.27673522
38598,10700 MARINE VIEW DR SW,47.50667015,-122.38510849
48812,10700 MERIDIAN AVE N,47.70732449,-122.33280488
16717,10702 14TH AVE NE,47.7068945,-122.31349052
37066,10702 2ND AVE NW,47.70711178,-122.35914743
3737,10702 5TH AVE NE,47.7074762,-122.3225044
34671,10702 LAKESIDE AVE NE,47.70794809,-122.27600063
38264,10702 SAND POINT WAY NE,47.70731444,-122.27919209
41580,10703 28TH AVE NE,47.70681913,-122.29821426
38194,10703 3RD AVE NW,47.70710543,-122.36109303
21596,10703 DURLAND AVE NE,47.70749889,-122.27848191
13058,10704 DURLAND AVE NE,47.70753688,-122.27785828
2364,10706 RIVIERA PL NE,47.70824767,-122.27553335
6105,10707 ASHWORTH AVE N,47.70716293,-122.33963412
6760,10708 1ST AVE NW,47.70727522,-122.35781578
6235,10710 8TH AVE NW,47.70666322,-122.3658633
45416,10711 8TH AVE NE,47.70709662,-122.32112242
3213,10711 AURORA AVE N,47.70709387,-122.34532489
13997,10711 EVANSTON AVE N,47.70734339,-122.35177067
632,10713 19TH AVE NE,47.70722649,-122.30880681
3999,10713 ROOSEVELT WAY NE,47.7072226,-122.31921955
26209,10713 WHITMAN AVE N,47.70706942,-122.34638753
44166,10714 LINDEN AVE N,47.70695097,-122.34705374
25820,10714 STONE AVE N,47.70739857,-122.34174085
20630,10715 8TH AVE NE,47.70712852,-122.32172784
42486,10716 19TH AVE NE,47.70722336,-122.30779292
7640,10717 MIDVALE AVE N,47.70761624,-122.34375363
16284,10718 15TH AVE NE,47.70730571,-122.31218706
14231,10718 35TH AVE NE,47.70704786,-122.29042449
6854,10718 DENSMORE AVE N,47.70740128,-122.33726191
18194,10718 EVANSTON AVE N,47.70746281,-122.3511728
15325,10719 1ST AVE NW,47.70762664,-122.3586825
40160,10719 AURORA AVE N,47.70708805,-122.34531027
39033,10719 DENSMORE AVE N,47.70735085,-122.33827395
15302,10720 15TH AVE NE,47.70730797,-122.31176159
27504,10720 35TH AVE SW,47.50656491,-122.37567992
14501,10720 55TH AVE S,47.50424822,-122.26462332
7784,10720 5TH AVE NE,47.7074762,-122.3225044
21393,10721 20TH AVE NE,47.70721807,-122.30661205
26563,10721 DURLAND AVE NE,47.70785837,-122.27866448
35527,10721 MARINE VIEW DR SW,47.50625048,-122.38497271
49292,10721 MIDVALE AVE N,47.70761624,-122.34375363
16610,10722 15TH AVE NE,47.70729773,-122.31137487
17650,10722 LAKE CITY WAY NE,47.70760667,-122.30117385
16355,10722 PALATINE AVE N,47.70759562,-122.35622647
43253,10724 EXETER AVE NE,47.70836267,-122.27695743
37993,10725 38TH AVE NE,47.70725499,-122.28850218
39651,10725 SAND POINT WAY NE,47.70761685,-122.27991956
42741,10726 15TH AVE NE,47.70745825,-122.3120809
10242,10726 35TH AVE NE,47.70735499,-122.29044716
1080,10726 ALTON AVE NE,47.70735065,-122.28190283
9472,10726 DENSMORE AVE N,47.70760366,-122.33677993
38941,10728 17TH AVE NE,47.70747011,-122.30924601
43996,10728 DURLAND AVE NE,47.70814784,-122.27818835
46119,10728 RIVIERA PL NE,47.70868896,-122.275765
32553,10728 WHITMAN AVE N,47.70736642,-122.34573494
47893,10729 12TH AVE NW,47.70749232,-122.3716027
7367,10729 AURORA AVE N,47.70744499,-122.34531695
41918,1073 SUMMIT AVE E,47.62912381,-122.32505751
5400,10730 PHINNEY AVE N,47.7078024,-122.35386536
48111,10732 RIVIERA PL NE,47.70885674,-122.27586301
8795,10733 MERIDIAN AVE N,47.70790998,-122.33440729
31337,10734 68TH AVE S,47.50455402,-122.24914438
41422,10734 LAKE CITY WAY NE,47.70783822,-122.30122012
39154,10735 AURORA AVE N,47.70778219,-122.34528816
45067,10735 DENSMORE AVE N,47.70787711,-122.33784726
41427,10735 STONE AVE N,47.70766793,-122.34243144
238,10739 SAND POINT WAY NE,47.70803431,-122.28026033
32790,1074 25TH AVE E,47.62889914,-122.30007154
38601,10740 55TH AVE S,47.50381028,-122.26453268
25967,10740 GREENWOOD AVE N,47.70807125,-122.35507396
29544,10740 MARINE VIEW DR SW,47.50673118,-122.38361863
2549,10743 3RD AVE NW,47.70820688,-122.3611736
25414,10743 68TH AVE S,47.50435796,-122.24972353
24540,10744 LAKESIDE AVE NE,47.70902914,-122.27642658
42700,10744 RIVIERA PL NE,47.709164,-122.27594055
28382,10745 ASHWORTH AVE N,47.70821164,-122.33973353
45882,10745 MERIDIAN AVE N,47.7081803,-122.33452259
11190,10748 55TH AVE S,47.50367838,-122.26452097
46071,1075 SUMMIT AVE E,47.62915711,-122.32492125
50433,10750 30TH AVE NE,47.70763444,-122.29454534
46843,10750 AURORA AVE N,47.70833796,-122.34430333
25168,10751 4TH AVE NW,47.70841418,-122.36220493
50138,10752 ASHWORTH AVE N,47.70838892,-122.33896938
40852,10754 GREENWOOD AVE N,47.70726856,-122.35540282
1700,10757 EVANSTON AVE N,47.70856596,-122.35204165
45147,10758 RIVIERA PL NE,47.70945295,-122.27608214
13885,1076 25TH AVE E,47.62900814,-122.30007606
46121,10762 RIVIERA PL NE,47.70956868,-122.27617134
37290,10763 DURLAND AVE NE,47.70893617,-122.27919991
33448,1077 26TH AVE E,47.628974,-122.29947316
5752,1079 25TH AVE E,47.62909302,-122.30064925
23718,108 11TH AVE E,47.61913523,-122.31793899
2444,108 5TH AVE S,47.60150311,-122.32723633
221,108 E LYNN ST,47.63990562,-122.32665955
38115,108 LAKE DELL AVE,47.6020622,-122.29082299
33152,108 N 46TH ST,47.66261262,-122.35724575
24814,108 N 59TH ST,47.67201371,-122.3572943
41129,108 NE 51ST ST,47.66592736,-122.3277402
25242,108 NE 92ND ST,47.69616289,-122.32805206
18017,108 NW 35TH ST,47.65244476,-122.35813393
25423,108 NW 87TH ST,47.69260833,-122.35858499
31796,108 PINE ST,47.61012696,-122.34074799
44629,1080 W EWING PL,47.6557208,-122.3698492
46727,1080 W EWING ST,47.6562033,-122.36971625
46517,10801 ARROYO BEACH PL SW,47.50639248,-122.38929639
10636,10805 36TH AVE SW,47.50622004,-122.37794169
28985,10805 37TH AVE SW,47.5062232,-122.37899873
32360,10808 11TH AVE NE,47.7074415,-122.31619418
27137,10808 27TH AVE NE,47.70770133,-122.2991446
24457,10809 LAKE CITY WAY NE,47.7080001,-122.30186729
32353,10810 12TH AVE NE,47.70739752,-122.31483482
48017,10811 35TH AVE SW,47.50601207,-122.37634897
30357,10811 36TH AVE SW,47.50609068,-122.37796507
15363,10812 27TH AVE NE,47.70786616,-122.29914683
48326,10812 42ND AVE SW,47.50618501,-122.38484798
18503,10814 44TH AVE SW,47.50612901,-122.38620283
40718,10814 VALMAY AVE NW,47.7071976,-122.37741042
2116,10815 VALMAY AVE NW,47.70743945,-122.37779882
31659,10817 42ND AVE SW,47.50589225,-122.3853747
46982,10820 BEACON AVE S,47.50294816,-122.26925339
16352,10821 LAKE CITY WAY NE,47.70855114,-122.30189256
951,10824 12TH AVE NE,47.70771387,-122.31455721
22964,10825 44TH AVE SW,47.50566047,-122.38669569
4488,10829 42ND AVE SW,47.50566132,-122.38512182
18151,10831 MARINE VIEW DR SW,47.50540062,-122.38081483
34089,10837 24TH AVE NE,47.70863069,-122.30345909
3783,10842 35TH AVE SW,47.50511215,-122.37577871
36948,10848 24TH AVE NE,47.7089994,-122.30304756
45148,10869 ARROYO BEACH PL SW,47.50477942,-122.38837273
46298,109 12TH AVE E,47.61911369,-122.31718898
2408,109 1ST AVE S,47.60128389,-122.33457182
45567,109 30TH AVE,47.60198588,-122.29410679
22411,109 30TH AVE S,47.60129225,-122.29416119
42993,109 BELL ST,47.61341249,-122.34598247
44775,109 E LOUISA ST,47.64181604,-122.32662117
11936,109 E LYNN ST,47.63962242,-122.32665153
27537,109 E ROANOKE ST,47.64298906,-122.32663401
7197,109 JOHN ST,47.61946557,-122.35493212
15007,109 N 101ST ST,47.70202088,-122.3576269
18234,109 NE 52ND ST,47.66624326,-122.32799957
4619,109 NE 57TH ST,47.66989885,-122.3277831
18114,109 NE 63RD ST,47.67421512,-122.32772153
38026,109 NEWELL ST,47.6444924,-122.35511822
43463,109 NW 104TH ST,47.70417117,-122.358553
15146,109 NW 112TH ST,47.71035347,-122.35864585
48584,109 W MERCER ST,47.62431253,-122.35857003
42312,10903 NORTH PARK AVE N,47.70821309,-122.34910938
39740,10907 AURORA AVE N,47.70842118,-122.3452347
4188,10908 NORTH PARK AVE N,47.7083637,-122.34844161
8819,1091 THOMAS ST,47.62037756,-122.33628748
41517,10950 39TH AVE SW,47.50439898,-122.38160749
10566,10960 39TH AVE SW,47.50404506,-122.38163377
24883,1099 STEWART ST,47.61673411,-122.33268035
41415,1099V ALASKAN WAY S,47.59429694,-122.33596488
14094,11 FLORENTIA ST,47.64668789,-122.35630181
42044,11 HOWE ST,47.6357744,-122.35639451
41632,11 ROY ST,47.62506935,-122.35620609
44856,11 S NEVADA ST,47.56539475,-122.34188114
26740,11 VINE ST,47.61351706,-122.35130478
49344,11 W ALOHA ST,47.62684241,-122.35737496
41827,11 W ARMOUR ST,47.64480339,-122.35745199
7213,11 W NEWELL ST,47.64384962,-122.35745689
12039,110 10TH AVE,47.60240824,-122.31913141
39989,110 13TH AVE,47.60202215,-122.31473837
42661,110 13TH AVE E,47.6191125,-122.3153392
45651,110 26TH AVE S,47.60126213,-122.29871338
21385,110 27TH AVE,47.60212219,-122.29760126
15748,110 29TH AVE S,47.60137127,-122.29480863
10354,110 37TH AVE E,47.61880311,-122.28617421
40976,110 6TH AVE N,47.61893858,-122.34474853
20984,110 8TH AVE S,47.60130395,-122.32184244
40377,110 9TH AVE N,47.61915166,-122.33939892
46651,110 ALASKAN WAY S,47.60135272,-122.3352255
29499,110 BOREN AVE,47.6018613,-122.31764183
11394,110 BROADWAY,47.60214179,-122.32048853
42092,110 CHERRY ST,47.60284627,-122.33408528
43318,110 LAKESIDE AVE,47.60207855,-122.28482085
33161,110 LEE ST,47.63116785,-122.35492838
33791,110 N 39TH ST,47.65446789,-122.35662831
28567,110 N 48TH ST,47.66381986,-122.35657842
8493,110 N 76TH ST,47.68422463,-122.35744273
3533,110 NE 57TH ST,47.6703481,-122.32772134
30492,110 NE 59TH ST,47.67176172,-122.3276864
22833,110 NE 85TH ST,47.69063683,-122.32785139
16181,110 NW 60TH ST,47.67257265,-122.35804284
17786,110 PREFONTAINE PL S,47.60159676,-122.32916938
3659,110 REPUBLICAN ST,47.62361985,-122.35456609
8489,110 SMITH ST,47.64162195,-122.35498032
49412,110 UNION ST,47.60821411,-122.33900707
19235,110 W FLORENTIA ST,47.64709421,-122.35866853
9407,1100 12TH AVE,47.61170504,-122.31654283
19254,1100 14TH AVE,47.61172361,-122.31389005
10504,1100 23RD AVE,47.61183196,-122.30224409
49433,1100 2ND AVE,47.60642294,-122.33582172
32732,1100 37TH AVE,47.61173527,-122.28589238
40806,1100 39TH AVE E,47.62874395,-122.28239623
25342,1100 3RD AVE,47.60671588,-122.33457064
24392,1100 4TH AVE,47.60713585,-122.33324361
49946,1100 5TH AVE,47.60755583,-122.33245481
50047,1100 9TH AVE,47.60953613,-122.32794469
39670,1100 ALKI AVE SW,47.59482163,-122.38538543
5749,1100 BROADWAY,47.61166745,-122.32029713
32176,1100 DENNY WAY,47.61879418,-122.33566475
48318,1100 DEXTER AVE N,47.62929639,-122.34195105
46945,1100 E UNION ST,47.61310152,-122.31771641
36783,1100 EASTLAKE AVE E,47.62890627,-122.32878064
49764,1100 FAIRVIEW AVE N,47.62855692,-122.33036774
47141,1100 LAKE WASHINGTON BLVD S,47.59326841,-122.28863293
35368,1100 N NORTHLAKE WAY,47.64853259,-122.34351038
34617,1100 NE 45TH ST,47.66158839,-122.31626136
33200,1100 NE CAMPUS PKWY,47.65660559,-122.31612136
42279,1100 NW 54TH ST,47.66812524,-122.37101073
49675,1100 OLIVE WAY,47.61597954,-122.33086962
42490,1100 REPUBLICAN ST,47.6238397,-122.33561795
13170,1100 S MASSACHUSETTS ST,47.58866688,-122.31824757
33983,1100 TAYLOR AVE N,47.6290716,-122.3460511
48664,1100 UNIVERSITY ST,47.61191945,-122.32666969
33759,1100 VIRGINIA ST,47.61832606,-122.33381507
46729,1100 W EWING ST,47.65692933,-122.37060722
17566,11000 LAKE CITY WAY NE,47.7086817,-122.30090346
38123,11002 MARINE VIEW DR SW,47.50449296,-122.38015334
25903,11003 GOODWIN WAY NE,47.70864977,-122.30870776
43779,11004 RIVIERA PL NE,47.70996056,-122.27619606
6262,11005 EXETER AVE NE,47.70961003,-122.27812847
8676,11006 34TH AVE NE,47.70870678,-122.29176275
31591,11007 5TH AVE NE,47.70913197,-122.32413717
22909,11008 RIVIERA PL NE,47.71022229,-122.27632472
14914,1101 10TH AVE E,47.62890435,-122.32047816
8264,1101 15TH AVE,47.61173414,-122.313137
9707,1101 17TH AVE,47.61171133,-122.31059249
35655,1101 1ST AVE,47.60551765,-122.33747479
35116,1101 23RD AVE,47.61169141,-122.30303174
28448,1101 23RD AVE S,47.59292962,-122.30286315
28886,1101 24TH AVE S,47.59291065,-122.30151418
49847,1101 2ND AVE,47.60581874,-122.33665842
22917,1101 32ND AVE S,47.59329202,-122.29185554
42708,1101 36TH AVE,47.61174766,-122.2875137
36173,1101 36TH AVE E,47.62872062,-122.2872195
30816,1101 4TH AVE,47.60695433,-122.33415494
44798,1101 AIRPORT WAY S,47.59322347,-122.3249199
26605,1101 ALASKAN WAY,47.60479324,-122.33994833
40635,1101 COLUMBIA ST,47.60777497,-122.32325745
39025,1101 DEXTER AVE N,47.62906083,-122.34260143
49686,1101 E PIKE ST,47.61388954,-122.31787373
12528,1101 E UNION ST,47.61280699,-122.31796499
50194,1101 MADISON ST,47.6092117,-122.32426736
46363,1101 MCGILVRA BLVD E,47.62877494,-122.28180967
12256,1101 N NORTHLAKE WAY,47.64820129,-122.34405794
33060,1101 NE CAMPUS PKWY,47.65577125,-122.31703645
37326,1101 NW 65TH ST,47.67581843,-122.37160216
23026,1101 PIKE ST,47.61329953,-122.32858764
10313,1101 RAINIER AVE S,47.59314944,-122.31007016
25492,1101 SENECA ST,47.61063407,-122.32602398
41051,1101 THOMAS ST,47.62059315,-122.33552991
18625,1101 WESTLAKE AVE N,47.62893599,-122.34141349
5568,11010 53RD AVE S,47.50223527,-122.26728912
42060,11010 GOODWIN WAY NE,47.7089941,-122.30844454
24682,11010 GREENWOOD AVE N,47.70901838,-122.35499008
24686,11011 MERIDIAN AVE N,47.7088742,-122.33494995
7605,11013 ARROYO BEACH PL SW,47.50419063,-122.38777206
14447,11013 LAKE CITY WAY NE,47.70902225,-122.30155369
44028,11015 1ST AVE NW,47.70922796,-122.35852153
22609,11015 ALTON AVE NE,47.7087963,-122.28379871
4767,11017 37TH AVE SW,47.50415801,-122.37919334
15938,11017 LAKESIDE AVE NE,47.71012667,-122.27731706
45701,1102 18TH AVE,47.61166961,-122.30856393
17013,1102 21ST AVE S,47.59285051,-122.30444354
6969,1102 23RD AVE,47.61183196,-122.30224409
14695,1102 24TH AVE S,47.59278385,-122.30087245
18461,1102 25TH AVE,47.61174621,-122.29991896
19529,1102 25TH AVE E,47.62943554,-122.30005369
22575,1102 31ST AVE S,47.59332637,-122.29249145
35335,1102 32ND AVE E,47.62869419,-122.29059189
17374,1102 4TH AVE,47.60713585,-122.33324361
47912,1102 8TH AVE,47.60892711,-122.3289727
50190,1102 COLUMBIA ST,47.60828644,-122.32355106
47408,1102 HIAWATHA PL S,47.59270618,-122.30739356
11196,1102 N 34TH ST,47.64884964,-122.34377561
2184,1102 NW 70TH ST,47.67970123,-122.37069329
24935,1102 NW 95TH ST,47.69810647,-122.37027325
5880,1102 SW MASSACHUSETTS ST,47.58760822,-122.35020055
32231,11020 RIVIERA PL NE,47.71030853,-122.27638939
31634,11021 FREMONT AVE N,47.70939162,-122.35044107
17577,11022 38TH AVE NE,47.7090254,-122.287839
28762,11022 GOODWIN WAY NE,47.70916855,-122.30872475
29932,11024 BARTLETT AVE NE,47.70935839,-122.28147648
40902,11025 BARTLETT AVE NE,47.7092919,-122.28216816
23594,11026 GOODWIN WAY NE,47.70934688,-122.30892181
37198,11026 RIVIERA PL NE,47.71053315,-122.27645535
30220,11027 35TH AVE SW,47.50381965,-122.37639076
24192,11027 40TH AVE NE,47.70916518,-122.28572788
8069,11027 ARROYO BEACH PL SW,47.50385763,-122.38735732
9964,11027 EXETER AVE NE,47.71036502,-122.27844391
26392,11027 MARINE VIEW DR SW,47.50386162,-122.3812649
33167,11027 MERIDIAN AVE N,47.70956766,-122.3345135
41204,11028 24TH AVE NE,47.70994942,-122.30243383
12617,11028 LAKESIDE AVE NE,47.71069203,-122.27708371
45188,11029 36TH AVE NE,47.70923068,-122.28962836
9813,11029 37TH AVE SW,47.50381077,-122.37917863
42884,11029 ROOSEVELT WAY NE,47.70941057,-122.31843982
15760,1103 1ST AVE,47.60551765,-122.33747479
6237,1103 LAKE WASHINGTON BLVD,47.61167654,-122.28258188
34418,1103 M L KING JR WAY,47.61172022,-122.29660722
45910,1103 NE 73RD ST,47.68136824,-122.31610816
8680,11030 5TH AVE NE,47.70973916,-122.3227046
35798,11030 8TH AVE NE,47.70990311,-122.32020384
17684,11030 GOODWIN WAY NE,47.70943441,-122.30906744
533,11031 38TH AVE NE,47.70933846,-122.28833674
30270,11032 8TH AVE NE,47.70990311,-122.32020384
21939,11033 23RD AVE NE,47.70943725,-122.30471471
44899,11033 ARROYO BEACH PL SW,47.50374607,-122.38728445
13444,11034 1ST AVE NW,47.70971405,-122.35783212
39657,11034 PHINNEY AVE N,47.7097587,-122.35381741
21940,11035 23RD AVE NE,47.70957733,-122.30471664
19567,11035 5TH AVE NE,47.70991472,-122.3253332
36539,11037 GOODWIN WAY NE,47.70915498,-122.30953826
38385,11037 LAKE CITY WAY NE,47.70971621,-122.30119869
17855,11038 LAKE CITY WAY NE,47.70950335,-122.30033843
24648,11038 RIVIERA PL NE,47.71072651,-122.27650301
4014,11039 17TH AVE NE,47.7095403,-122.31076415
35279,11039 19TH AVE NE,47.70973184,-122.30845272
46521,11039 ARROYO BEACH PL SW,47.50359474,-122.38710981
19257,1104 14TH AVE,47.61178127,-122.31389399
31031,1104 18TH AVE,47.61176099,-122.30866344
17014,1104 21ST AVE S,47.59279696,-122.30448644
14522,1104 24TH AVE S,47.59267052,-122.30073616
36312,1104 35TH AVE,47.61182657,-122.28801583
39671,1104 ALKI AVE SW,47.59489443,-122.38547632
21038,1104 GRAND AVE,47.61170093,-122.28285002
9354,1104 LAKESIDE AVE S,47.59326264,-122.28758182
39063,1104 M L KING JR WAY S,47.59308131,-122.29760104
46765,1104 MERCER ST,47.6248471,-122.33547912
46281,1104 NW 130TH ST,47.72352412,-122.37059802
28801,1104 NW 85TH ST,47.69086029,-122.37066753
10122,11040 19TH AVE NE,47.70968575,-122.30766328
28091,11040 ALTON AVE NE,47.70959523,-122.28297594
8864,11041 20TH AVE NE,47.70971864,-122.30665197
1381,11043 PALATINE AVE N,47.71005882,-122.35736499
10085,11044 19TH AVE NE,47.70977157,-122.30764704
14566,11044 1ST AVE NW,47.71005253,-122.35779841
21816,11045 35TH AVE SW,47.50330492,-122.37649348
47657,11045 8TH AVE NE,47.70978696,-122.32157708
8228,11047 23RD AVE NE,47.70990682,-122.30471627
13832,11047 31ST AVE NE,47.70978302,-122.29520663
36326,11048 BARTLETT AVE NE,47.70997033,-122.2818586
43222,11048 DURLAND AVE NE,47.71042267,-122.27923622
35665,11049 SAND POINT WAY NE,47.7101669,-122.28112726
18588,1105 9TH AVE W,47.62901086,-122.36926345
40631,1105 E FIR ST,47.60246647,-122.31772324
5062,1105 PARKSIDE DR E,47.62870419,-122.29153424
21371,1105 S BENNETT ST,47.55475697,-122.3177988
35556,1105 S HUDSON ST,47.55700787,-122.31809404
22236,1105 SHENANDOAH DR E,47.62952513,-122.28878852
26716,1105 SPRING ST,47.61007455,-122.32529486
43397,1105 STURGUS AVE S,47.59279082,-122.3136071
37709,11050 5TH AVE NE,47.71028049,-122.32302936
49042,11050 8TH AVE NE,47.71025526,-122.32021551
15851,11051 20TH AVE NE,47.70994582,-122.30702174
48752,11051 34TH AVE NE,47.70995069,-122.29302366
33778,11051 ALTON AVE NE,47.70977317,-122.28367562
24760,11051 ARROYO BEACH PL SW,47.50322433,-122.38679559
49243,11051 EVANSTON AVE N,47.71017888,-122.35181186
40204,11054 ALTON AVE NE,47.70995375,-122.2831264
39225,11057 GREENWOOD AVE N,47.71032901,-122.35576374
17546,11057 MARINE VIEW DR SW,47.50294744,-122.38126196
21299,1106 10TH AVE E,47.62898232,-122.3197982
2571,1106 14TH AVE,47.61189738,-122.31390389
44393,1106 23RD AVE S,47.59276383,-122.30231236
40992,1106 24TH AVE S,47.59267402,-122.30101899
29834,1106 6TH AVE W,47.62896363,-122.36413893
36147,1106 E HOWELL ST,47.61778446,-122.31783228
44426,1106 LAKEVIEW BLVD E,47.62948628,-122.3254529
16347,1106 M L KING JR WAY S,47.59297026,-122.29759306
16968,1106 N 46TH ST,47.66235304,-122.34417912
11737,1106 N 48TH ST,47.66379373,-122.34414267
22861,1106 PIKE ST,47.61378091,-122.32876354
22406,1106 W HOWE ST,47.63611574,-122.37209004
35924,11060 39TH AVE SW,47.50301676,-122.38170684
21327,11064 EXETER AVE NE,47.71126285,-122.27830845
28624,11066 5TH AVE NE,47.71058956,-122.32262308
10260,11066 ARROYO BEACH PL SW,47.50338438,-122.38595797
40655,1106R ALKI AVE SW,47.59501164,-122.38549031
36109,1107 1ST AVE,47.60551765,-122.33747479
42181,1107 21ST AVE E,47.62892725,-122.30514958
21459,1107 30TH AVE,47.61193693,-122.29402334
14033,1107 31ST AVE S,47.5929914,-122.29305406
44370,1107 37TH AVE,47.61195356,-122.28648189
19926,1107 38TH AVE,47.61185762,-122.28528324
30438,1107 4TH AVE N,47.62914692,-122.34913668
30593,1107 E DENNY WAY,47.61862076,-122.31783992
40026,1107 E MADISON ST,47.61227892,-122.3175201
33689,1107 ELLIOTT AVE W,47.62863802,-122.37177586
22196,1107 FEDERAL AVE E,47.62897508,-122.31943755
8310,1107 N 49TH ST,47.66408917,-122.34414617
5429,1107 NE 45TH ST,47.66100947,-122.31627649
20600,1107 NOB HILL AVE N,47.62920635,-122.35042852
21294,1107 NW 56TH ST,47.6692153,-122.37121548
36933,1107 NW 61ST ST,47.67290397,-122.37178181
6293,1107 NW 63RD ST,47.67436102,-122.37180708
21539,1107 SUNSET AVE SW,47.59320816,-122.38726884
20848,1108 10TH AVE E,47.6289908,-122.31993942
2573,1108 14TH AVE,47.61184904,-122.31363438
47760,1108 9TH AVE W,47.6290879,-122.36857331
35901,1108 E EDGAR ST,47.64467802,-122.31785041
39091,1108 M L KING JR WAY S,47.59300088,-122.29731524
48286,1108 NW 52ND ST,47.66669739,-122.37122887
17228,1108 NW 80TH ST,47.68707266,-122.37088223
31077,1108 NW 95TH ST,47.69808332,-122.37083127
44459,1108 W BLAINE ST,47.63494136,-122.37214808
16674,1109 17TH AVE E,47.62905016,-122.31036312
25375,1109 1ST AVE,47.60551765,-122.33747479
47360,1109 25TH AVE,47.61196234,-122.30042061
47148,1109 2ND AVE,47.6061431,-122.33675344
14518,1109 32ND AVE,47.6120118,-122.29176831
36082,1109 E HARRISON ST,47.62185719,-122.3174293
28530,1109 MADISON ST,47.6092117,-122.32426736
49167,1109 N 36TH ST,47.65018712,-122.34355084
46013,1109 N NORTHLAKE WAY,47.64793694,-122.34359593
5471,1109 NE 55TH ST,47.66839864,-122.31586116
16813,11095 ARROYO BEACH PL SW,47.50225506,-122.38558121
29222,11097 ARROYO BEACH PL SW,47.50220027,-122.38534877
40944,11099 ARROYO BEACH PL SW,47.5021233,-122.38515856
11396,111 10TH AVE,47.60210349,-122.32019842
8076,111 14TH AVE E,47.61929966,-122.31469821
18183,111 16TH AVE,47.60215136,-122.31178602
40374,111 17TH AVE,47.60204123,-122.3104724
30936,111 20TH AVE E,47.61891692,-122.30634934
44886,111 21ST AVE E,47.61889103,-122.30507666
39997,111 26TH AVE E,47.61934177,-122.29887177
45652,111 26TH AVE S,47.60126753,-122.29921268
1741,111 27TH AVE S,47.60126152,-122.29813095
23513,111 33RD AVE E,47.61878037,-122.2904628
20975,111 8TH AVE S,47.60131033,-122.3227285
41868,111 BROADWAY E,47.61932484,-122.3213277
14935,111 CEDAR ST,47.61590444,-122.35017725
41914,111 E HAMLIN ST,47.64546598,-122.32664502
30163,111 N 74TH ST,47.68237259,-122.35738587
17138,111 N 75TH ST,47.68304754,-122.35737789
41878,111 N 76TH ST,47.68382369,-122.3573472
30420,111 NE 51ST ST,47.66551598,-122.32775732
15614,111 NE 63RD ST,47.67422713,-122.32755425
23678,111 NW 103RD ST,47.70352054,-122.3592505
35343,111 NW 145TH ST,47.73369855,-122.3597363
6315,111 NW 78TH ST,47.68529988,-122.35854081
45327,111 NW 82ND ST,47.68814976,-122.35855161
42305,111 PINE ST,47.60973137,-122.34039035
30326,111 QUEEN ANNE AVE N,47.61890721,-122.35714128
43508,111 S JACKSON ST,47.59895972,-122.3337999
41888,111 S SPOKANE ST,47.57120371,-122.33300555
7709,111 TOWER PL,47.6305356,-122.35529288
27286,111 W HARRISON ST,47.62194594,-122.35862104
26462,111 W HIGHLAND DR,47.62936718,-122.35860904
40376,111 WESTLAKE AVE N,47.61887749,-122.33885567
14314,111 YALE AVE N,47.61896207,-122.33079472
2572,1110 14TH AVE,47.6119144,-122.3138004
43944,1110 23RD AVE S,47.59265871,-122.30233007
25664,1110 30TH AVE,47.61203049,-122.29346418
34818,1110 3RD AVE,47.60671588,-122.33457064
23134,1110 4TH AVE N,47.6292961,-122.34858517
40213,1110 DEXTER AVE N,47.62929639,-122.34195105
16792,1110 LAKE WASHINGTON BLVD S,47.59309723,-122.28884009
39093,1110 M L KING JR WAY S,47.59300091,-122.29731277
7316,1110 N 140TH ST,47.73073324,-122.34439349
32918,1110 N 49TH ST,47.66449494,-122.34400174
10869,1110 N 90TH ST,47.69433766,-122.34437245
18046,1110 NOB HILL AVE N,47.62928509,-122.34988192
40846,1110 NW 50TH ST,47.66525145,-122.37136586
40599,1110 NW 52ND ST,47.66660845,-122.3713735
19517,1110 NW 75TH ST,47.68342291,-122.3710195
37595,1110 NW 87TH ST,47.692207,-122.37097418
49765,1110 W GARFIELD ST,47.63366656,-122.37234488
19324,11100 ROOSEVELT WAY NE,47.70941826,-122.3170865
35495,1111 10TH AVE E,47.62915499,-122.32059651
1825,1111 1ST AVE,47.60551765,-122.33747479
13475,1111 34TH AVE,47.61201988,-122.28970333
50023,1111 3RD AVE,47.60655975,-122.33534639
37817,1111 5TH AVE W,47.62912688,-122.36339778
16394,1111 BROADWAY E,47.62908139,-122.32162224
32930,1111 E CHERRY ST,47.60790865,-122.31757865
41738,1111 E HARRISON ST,47.62182027,-122.31717176
49535,1111 E MADISON ST,47.61234065,-122.31711333
2206,1111 E PIKE ST,47.61388874,-122.31756146
41116,1111 E UNION ST,47.61272366,-122.31762656
30754,1111 ELLIOTT AVE W,47.62863802,-122.37177586
30199,1111 FAIRVIEW AVE N,47.62985239,-122.33041314
18480,1111 HARBOR AVE SW,47.59337647,-122.38389195
17043,1111 HARVARD AVE,47.61194709,-122.32178426
31270,1111 LAKE WASHINGTON BLVD S,47.59309117,-122.2894755
4622,1111 N 49TH ST,47.66406559,-122.34398593
8724,1111 N 50TH ST,47.66480906,-122.34396659
45413,1111 N 98TH ST,47.70036624,-122.34374195
42213,1111 NW 58TH ST,47.67072125,-122.37142609
45530,1111 NW 85TH ST,47.69052206,-122.37099677
48609,1111 NW BALLARD WAY,47.66264873,-122.37183891
15480,1111 S ATLANTIC ST,47.58964024,-122.31865905
45351,11111 AURORA AVE N,47.70969836,-122.3455876
27663,11114 51ST AVE S,47.50089794,-122.27005348
44928,1112 13TH AVE,47.61198441,-122.3151524
8696,1112 16TH AVE,47.61205688,-122.31096048
22015,1112 19TH AVE E,47.62905076,-122.30693622
49297,1112 24TH AVE,47.61204715,-122.30117561
35404,1112 4TH AVE,47.60713585,-122.33324361
29797,1112 4TH AVE N,47.62940652,-122.34860283
39329,1112 6TH AVE N,47.62939833,-122.3446593
8455,1112 N 76TH ST,47.68421906,-122.34375864
40466,1112 NW 50TH ST,47.66525145,-122.37136586
17068,1112 NW 52ND ST,47.66667833,-122.37162098
32037,1112 PIKE ST,47.61378091,-122.32876354
16612,1113 15TH AVE,47.6120134,-122.31314668
134,1113 26TH AVE S,47.59248918,-122.29933842
13725,1113 29TH AVE S,47.59291298,-122.29592144
20368,1113 34TH AVE,47.61201327,-122.28959227
50008,1113 6TH AVE,47.60809848,-122.33212985
16690,1113 E JOHN ST,47.61974247,-122.31751135
34569,1113 LAKE WASHINGTON BLVD,47.61191649,-122.28240964
37236,1113 N 100TH ST,47.70121478,-122.34374331
33660,1113 NW 52ND ST,47.66625852,-122.37139501
15909,1113 NW 70TH ST,47.6794065,-122.37140163
38893,1113 YAKIMA AVE S,47.59292168,-122.29465204
27520,1114 14TH AVE,47.6120149,-122.31383998
14292,1114 15TH AVE E,47.62919982,-122.31226695
8636,1114 16TH AVE,47.61206347,-122.31119157
1605,1114 HIAWATHA PL S,47.59240969,-122.30717283
24876,1114 NE 80TH ST,47.68692576,-122.31552519
26593,1114 SUNSET AVE SW,47.59278525,-122.38691051
47535,1114 VALLEY ST,47.62621052,-122.33520318
9112,1115 16TH AVE E,47.62919746,-122.3116131
13726,1115 29TH AVE S,47.59282584,-122.29592456
16228,1115 30TH AVE S,47.59290742,-122.29363667
22747,1115 32ND AVE,47.61214774,-122.29175539
45231,1115 34TH AVE,47.61215899,-122.28969883
24216,1115 35TH AVE,47.61206816,-122.28859855
5059,1115 36TH AVE,47.61200144,-122.28756252
15023,1115 39TH AVE E,47.62910222,-122.28311832
2271,1115 BROADWAY,47.61196328,-122.32108572
48145,1115 COLUMBIA ST,47.60819513,-122.32283029
26012,1115 DEXTER AVE N,47.62937072,-122.34264308
46776,1115 E PIKE ST,47.61393983,-122.31744657
20631,1115 LAKE WASHINGTON BLVD S,47.5929803,-122.28947649
12665,1115 M L KING JR WAY S,47.59253776,-122.29816711
33683,1115 MCGILVRA BLVD E,47.62908744,-122.28171246
47834,1115 N 140TH ST,47.73035997,-122.34419539
866,1115 N 42ND ST,47.65786969,-122.34387311
15179,1115 N 76TH ST,47.68384612,-122.34360182
45429,1115 N 93RD ST,47.69606831,-122.34371282
41965,1115 N 94TH ST,47.69696063,-122.34402113
3291,1115 NW 51ST ST,47.66548087,-122.37157307
21034,1115 NW 80TH ST,47.68674466,-122.37119253
44977,1115 YAKIMA AVE S,47.59292452,-122.29486255
21256,11158 BEACON AVE S,47.50039457,-122.26694697
21614,1116 14TH AVE,47.61209153,-122.31367552
48032,1116 24TH AVE E,47.62983994,-122.30138389
16534,1116 25TH AVE E,47.629836,-122.30008004
39545,1116 33RD AVE S,47.5929337,-122.29009046
45773,1116 5TH AVE N,47.62947714,-122.34725092
47573,1116 ALKI AVE SW,47.59494414,-122.38584763
40781,1116 LAKESIDE AVE S,47.59289359,-122.28760036
33746,1116 N NORTHGATE WAY,47.70522254,-122.34388206
19316,1116 NE 47TH ST,47.66326226,-122.31558192
44722,1116 NEWPORT WAY,47.61183833,-122.28410597
21740,1116 NW 61ST ST,47.67328409,-122.3722031
43657,1116 SW HOLDEN ST,47.53422008,-122.3500616
39906,1116 W EWING ST,47.65674376,-122.37224368
32388,1117 17TH AVE E,47.62919871,-122.31032887
42839,1117 20TH AVE S,47.59252297,-122.30659369
13727,1117 29TH AVE S,47.59281935,-122.29570651
15544,1117 30TH AVE S,47.59281556,-122.29363966
35926,1117 32ND AVE S,47.59299223,-122.2920882
11356,1117 BOYLSTON AVE E,47.62957159,-122.32412164
2423,1117 E DENNY WAY,47.61859196,-122.31721963
14726,1117 MINOR AVE,47.61090505,-122.32549131
9726,1117 N NORTHGATE WAY,47.70477826,-122.34372052
47418,1117 NE BOAT ST,47.65246228,-122.31697394
22941,1117 NW 62ND ST,47.67364157,-122.37218811
28297,1118 13TH AVE,47.61217444,-122.31515075
690,1118 15TH AVE E,47.62942146,-122.312255
36686,1118 18TH AVE E,47.62929402,-122.30830275
5005,1118 20TH AVE E,47.62925412,-122.3057238
43534,1118 23RD AVE S,47.59243863,-122.30234187
12470,1118 24TH AVE S,47.59228291,-122.30100137
39047,1118 25TH AVE,47.6121989,-122.29989604
24865,1118 27TH AVE,47.6122303,-122.29724577
18793,1118 31ST AVE,47.61231215,-122.29236265
24591,1118 33RD AVE,47.6122747,-122.29014781
45252,1118 41ST AVE E,47.62924111,-122.27913721
43689,1118 ALKI AVE SW,47.59494151,-122.38603561
33595,1118 NE 47TH ST,47.66326226,-122.31558192
45282,1118 NW 50TH ST,47.66525297,-122.37161148
42830,1118 NW 57TH ST,47.67034939,-122.3715972
33565,1118 W RAYE ST,47.6431225,-122.37241437
33799,11180 BEACON AVE S,47.50002728,-122.26626367
28616,1119 16TH AVE,47.6121875,-122.31174984
28169,1119 1ST AVE,47.60571735,-122.33760948
12970,1119 23RD AVE S,47.5925094,-122.30308633
27034,1119 33RD AVE S,47.59285457,-122.29067999
4954,1119 34TH AVE,47.61230145,-122.28978085
34412,1119 38TH AVE,47.61226537,-122.28524437
32539,1119 4TH AVE,47.60727803,-122.33432358
31718,1119 5TH AVE N,47.62952155,-122.34784072
3946,1119 8TH AVE,47.60901363,-122.32995722
14922,1119 E HAMLIN ST,47.64545897,-122.31750344
23630,1119 ELM PL SW,47.59317967,-122.38406241
43840,1119 LAKE WASHINGTON BLVD,47.61203275,-122.28229353
2692,1119 MERCER ST,47.62432913,-122.33496594
10537,1119 NEWPORT WAY,47.61232279,-122.28401799
48972,1119 NW 45TH ST,47.6611426,-122.3732116
10129,11190R ARROYO BEACH PL SW,47.50257349,-122.38530104
45247,112 13TH AVE,47.60210402,-122.31474612
42966,112 16TH AVE,47.6021575,-122.31128616
40546,112 17TH AVE,47.60216961,-122.31001893
13216,112 21ST AVE,47.60194236,-122.3049762
13769,112 27TH AVE E,47.61939448,-122.297074
15750,112 29TH AVE S,47.60130789,-122.29462948
34977,112 N 144TH ST,47.73350386,-122.35790396
16915,112 N 41ST ST,47.65653356,-122.35697763
14070,112 N 85TH ST,47.69112475,-122.35734593
38383,112 NW 46TH ST,47.66256685,-122.35850841
13511,112 NW 62ND ST,47.67433227,-122.35808778
43841,112 STEWART ST,47.6109434,-122.34076813
44021,112 W FLORENTIA ST,47.64708698,-122.35889297
12631,112 W GALER ST,47.63244251,-122.35889069
9134,1120 12TH AVE,47.61234752,-122.31629144
8925,1120 15TH AVE S,47.59240834,-122.31389886
26773,1120 20TH AVE S,47.59208954,-122.30563322
18347,1120 21ST AVE S,47.59247464,-122.30475351
46206,1120 24TH AVE E,47.62998511,-122.30128439
38833,1120 33RD AVE S,47.59281666,-122.29002912
44361,1120 34TH AVE,47.61226958,-122.28886781
41054,1120 35TH AVE,47.61233708,-122.28791167
32626,1120 36TH AVE E,47.62927951,-122.2864849
13111,1120 39TH AVE E,47.62924395,-122.28243601
17952,1120 8TH AVE,47.60929892,-122.32947361
47738,1120 CHERRY ST,47.6078921,-122.32250243
41028,1120 DENNY WAY,47.61889483,-122.33487039
3601,1120 JOHN ST,47.61998865,-122.33478445
20654,1120 LAKE WASHINGTON BLVD S,47.59277407,-122.2886987
43130,1120 NW 85TH ST,47.69084246,-122.37091765
21017,1120 SPRING ST,47.61056576,-122.32526158
47177,1120 W BLAINE ST,47.63495572,-122.37260344
43316,11200 GREENWOOD AVE N,47.71080543,-122.35512527
46497,11201 ROOSEVELT WAY NE,47.70983789,-122.31866788
29762,11202 1ST AVE NW,47.71071898,-122.35796111
40066,11202 ROOSEVELT WAY NE,47.70998802,-122.3174196
14848,11203 CORNELL AVE S,47.50281793,-122.24154092
34384,11205 CRESTWOOD DR S,47.50271355,-122.24505403
18566,11206 35TH AVE SW,47.50253169,-122.37586549
46371,11207 MARINE VIEW DR SW,47.50270246,-122.38118577
46010,1121 16TH AVE,47.61218571,-122.31201285
10754,1121 1ST AVE,47.60571735,-122.33760948
14187,1121 21ST AVE S,47.59224143,-122.30582787
30203,1121 22ND AVE E,47.62932371,-122.30390399
19641,1121 30TH AVE S,47.59269592,-122.29368992
45232,1121 34TH AVE,47.6123067,-122.28964641
14852,1121 38TH AVE E,47.62923323,-122.28450788
19142,1121 39TH AVE E,47.62925034,-122.28314344
37694,1121 9TH AVE W,47.62937932,-122.36930962
18449,1121 BIGELOW AVE N,47.62948058,-122.35209168
44791,1121 E PIKE ST,47.61394698,-122.31715508
48614,1121 N 82ND ST,47.68818866,-122.34352752
42449,1121 N 92ND ST,47.6954836,-122.34348044
47909,1121 NE 45TH ST,47.66107313,-122.31566724
10579,1121 NW 59TH ST,47.67144828,-122.3717777
44574,1121 STEWART ST,47.6172978,-122.33193712
23321,11210 LAKESIDE AVE NE,47.71131849,-122.27720604
21146,11212 1ST AVE NW,47.71100956,-122.35783005
37785,11215 MARINE VIEW DR SW,47.50238853,-122.38120738
10778,11217 GREENWOOD AVE N,47.71119332,-122.35584779
10777,11219 GREENWOOD AVE N,47.71119914,-122.35586243
46221,1122 10TH AVE E,47.62935075,-122.31996181
35880,1122 16TH AVE,47.61230247,-122.31100626
36480,1122 23RD AVE,47.61209506,-122.30236379
13840,1122 23RD AVE S,47.59239717,-122.30212738
25717,1122 24TH AVE,47.61229936,-122.30118391
14060,1122 26TH AVE S,47.59218537,-122.29880241
24100,1122 34TH AVE,47.61231601,-122.28918468
49436,1122 3RD AVE,47.60699704,-122.33482036
18412,1122 FEDERAL AVE E,47.62939639,-122.31886989
25803,1122 HARVARD AVE E,47.62941455,-122.32208272
48255,1122 MADISON ST,47.60984592,-122.32440011
47159,1122 N 97TH ST,47.69983093,-122.34349292
310,1122 NW 50TH ST,47.66522033,-122.37182726
7658,11222 37TH AVE SW,47.50227206,-122.37924421
3963,11222 GREENWOOD AVE N,47.71122386,-122.35497614
26770,11222 ROOSEVELT WAY NE,47.71028288,-122.31739508
40733,11225 MARINE VIEW DR SW,47.5021576,-122.381239
34802,11225 PALATINE AVE N,47.71137951,-122.35714934
846,11226 DAYTON AVE N,47.71136167,-122.35252677
28614,1123 16TH AVE,47.61225706,-122.31201792
29793,1123 19TH AVE E,47.62939317,-122.30767905
16707,1123 21ST AVE S,47.59237828,-122.30555158
26746,1123 23RD AVE,47.61220565,-122.30313998
44432,1123 24TH AVE S,47.59243477,-122.30175574
25669,1123 27TH AVE,47.61229774,-122.29784829
47732,1123 32ND AVE,47.61235335,-122.29175258
45292,1123 CALIFORNIA AVE SW,47.59252469,-122.38656641
5937,1123 E JOHN ST,47.61975115,-122.31715575
46815,1123 ELLIOTT AVE W,47.62975103,-122.37307193
20801,1123 M L KING JR WAY,47.6122278,-122.29650395
38805,1123 N 92ND ST,47.69536449,-122.34347017
41355,1123 NW 51ST ST,47.66548355,-122.37182228
13247,11230 GREENWOOD AVE N,47.71154849,-122.35526205
18133,11231 ROOSEVELT WAY NE,47.71078237,-122.31825037
13248,11232 GREENWOOD AVE N,47.71154736,-122.35514921
14805,11233 PHINNEY AVE N,47.71152546,-122.35448075
13249,11234 GREENWOOD AVE N,47.71151372,-122.35492738
28701,11237 MARINE VIEW DR SW,47.5017758,-122.38131138
42375,1124 1ST AVE,47.6061431,-122.33675344
49489,1124 20TH AVE E,47.62948004,-122.30568243
26774,1124 20TH AVE S,47.59207436,-122.30551843
15341,1124 23RD AVE E,47.62938933,-122.30210793
10961,1124 23RD AVE S,47.59235882,-122.30232998
11559,1124 25TH AVE,47.61235973,-122.29986626
33037,1124 35TH AVE,47.61242238,-122.28794221
48643,1124 COLUMBIA ST,47.6086266,-122.32373921
37927,1124 N 97TH ST,47.69983093,-122.34349292
46607,1124 PIKE ST,47.61398402,-122.32828717
20256,1124 SUNSET AVE SW,47.5925722,-122.38693599
49685,1124 SW MASSACHUSETTS ST,47.58739588,-122.3506688
12057,11241 DAYTON AVE N,47.71178386,-122.35313685
31656,11242 MARINE VIEW DR SW,47.50178019,-122.38046403
29800,11244 RIVIERA PL NE,47.71096826,-122.27650233
32131,11245 1ST AVE NW,47.71194305,-122.35847468
28878,11246 PHINNEY AVE N,47.71191744,-122.35396237
7423,11249 FREMONT AVE N,47.71190842,-122.35053178
28600,1125 16TH AVE,47.61225754,-122.31176349
28807,1125 24TH AVE S,47.59236101,-122.30175366
27792,1125 BROADWAY E,47.62955367,-122.32157799
48226,1125 E OLIVE ST,47.61625554,-122.31727364
47349,1125 M L KING JR WAY,47.61230617,-122.29653951
44112,1125 N 140TH ST,47.7303514,-122.34394378
1036,1125 N 93RD ST,47.69614151,-122.34334842
41966,11250 PALATINE AVE N,47.71201086,-122.3565747
13978,11251 PALATINE AVE N,47.7120564,-122.35711996
43460,11253 37TH AVE SW,47.50134147,-122.37883298
46122,11254 RIVIERA PL NE,47.71118155,-122.27658738
18855,11256 FREMONT AVE N,47.71218312,-122.34993899
36837,11257 PALATINE AVE N,47.71221898,-122.35713391
19579,1126 15TH AVE E,47.62952917,-122.31228713
37286,1126 24TH AVE E,47.63011822,-122.30132101
21276,1126 25TH AVE E,47.63010529,-122.30007199
11325,1126 34TH AVE,47.61243661,-122.28900985
34358,1126 8TH AVE W,47.62958202,-122.36733245
8503,1126 FEDERAL AVE E,47.62954812,-122.31885535
45900,1126 M L KING JR WAY,47.61239306,-122.29562509
14854,1126 N 90TH ST,47.69437403,-122.3432277
41048,1126 N 98TH ST,47.70079684,-122.34300742
46123,11262 RIVIERA PL NE,47.71153275,-122.27662447
20338,11265 MARINE VIEW DR SW,47.50099438,-122.38051233
35642,11266 MARINE VIEW DR SW,47.50128521,-122.37988758
5624,1127 19TH AVE E,47.62950368,-122.30758203
31202,1127 33RD AVE S,47.59264399,-122.29067926
25250,1127 36TH AVE,47.61242048,-122.28748075
40208,1127 38TH AVE E,47.6295295,-122.28462144
4437,1127 FEDERAL AVE E,47.6295227,-122.31955544
21169,11270 MARINE VIEW DR SW,47.50122872,-122.37964418
32167,11273 59TH AVE S,47.49803739,-122.25988886
42228,11279 59TH AVE S,47.4978598,-122.25991522
22897,1128 17TH AVE,47.61240665,-122.30983593
46301,1128 22ND AVE E,47.62948271,-122.30322431
2504,1128 25TH AVE,47.61245333,-122.29990319
11658,1128 32ND AVE E,47.62941775,-122.29053289
20170,1128 36TH AVE E,47.62938912,-122.28646431
31976,1128 37TH AVE,47.6124496,-122.28578928
2545,1128 N 76TH ST,47.68423673,-122.34311975
26603,1128 N 90TH ST,47.69432842,-122.34308463
39032,1128 N 93RD ST,47.69659203,-122.34314296
25092,1128 NW 63RD ST,47.67474671,-122.37264794
38023,1128 POPLAR PL S,47.59248254,-122.31022637
697,1128 SW SPOKANE ST,47.5720269,-122.35145805
30352,11287 MARINE VIEW DR SW,47.50065225,-122.37998721
45702,1129 18TH AVE,47.61236077,-122.30912175
5500,1129 20TH AVE E,47.62949378,-122.3063529
40447,1129 LAKESIDE AVE S,47.59278317,-122.28836719
17784,1129 PARKSIDE DR E,47.62937695,-122.29139744
6645,113 17TH AVE E,47.61898194,-122.31053404
4913,113 1ST AVE N,47.61906798,-122.35579532
16763,113 23RD AVE S,47.60073731,-122.30258019
17079,113 NE 52ND ST,47.66624095,-122.32785678
44860,1130 32ND AVE S,47.59255789,-122.29132426
49979,1130 BROADWAY,47.61248941,-122.32029543
47029,1130 GRAND AVE,47.61239822,-122.28313678
10613,1130 LAKE WASHINGTON BLVD S,47.59246767,-122.28882036
9864,1130 N 82ND ST,47.68858333,-122.3429999
26993,1130 N 90TH ST,47.6944234,-122.34308942
31257,1130 N NORTHGATE WAY,47.70524133,-122.34356194
33718,11300 3RD AVE NE,47.71103759,-122.3248067
4738,11300 5TH AVE NE,47.71088501,-122.32303723
4436,11300 PINEHURST WAY NE,47.71076186,-122.3168843
36759,11300 ROOSEVELT WAY NE,47.71076292,-122.31766992
47409,11301 DURLAND PL NE,47.71094741,-122.27955354
36597,11301 LAKE CITY WAY NE,47.71075818,-122.30068476
7102,11301 LAKESIDE AVE NE,47.71171348,-122.27798456
23315,11302 14TH AVE NE,47.7105235,-122.31350653
45508,11304 8TH AVE NE,47.71072468,-122.32023906
43280,11305 12TH AVE NE,47.71079105,-122.31551283
46695,11306 LAKE CITY WAY NE,47.71049924,-122.30004485
40508,11308 5TH AVE NE,47.71090435,-122.3227172
41567,11308 LAKE CITY WAY NE,47.7109481,-122.29988088
41342,11309 CORLISS AVE N,47.71082454,-122.33173355
11899,1131 19TH AVE E,47.62962164,-122.30760096
43783,1131 21ST AVE S,47.59207374,-122.30538295
30845,1131 32ND AVE S,47.59256739,-122.29189158
29530,1131 BRADNER PL S,47.59242591,-122.29626318
1035,1131 N 93RD ST,47.69615129,-122.34314745
37510,1131 POPLAR PL S,47.59216324,-122.31066277
13490,11310 3RD AVE NW,47.71170058,-122.36049686
40290,11310 5TH AVE NE,47.71090997,-122.32240093
8902,11312 20TH AVE NE,47.71070335,-122.30600202
35512,11314 35TH AVE NE,47.71066664,-122.29033612
46795,11315 LAKESIDE AVE NE,47.71211347,-122.27809571
40787,11317 CORLISS AVE N,47.71100795,-122.33169523
31261,11318 39TH AVE NE,47.71076894,-122.28630873
17749,1132 10TH AVE E,47.6296274,-122.32004465
42251,1132 16TH AVE,47.61255446,-122.3111889
38788,1132 N 76TH ST,47.68423815,-122.34295284
12389,1132 N 77TH ST,47.68497959,-122.34294555
42455,1132 S ALBRO PL,47.54600915,-122.3172045
7718,11320 19TH AVE NE,47.71094236,-122.30761822
2208,11320 23RD AVE NE,47.71088186,-122.30413522
34906,11321 31ST AVE NE,47.71091041,-122.2951027
16859,11321 40TH AVE NE,47.71082358,-122.28561341
19951,11321 51ST AVE S,47.50087361,-122.27059416
7719,11322 19TH AVE NE,47.71097077,-122.30736951
22401,11322 MERIDIAN AVE N,47.7110012,-122.33353532
36587,11323 LAKE CITY WAY NE,47.71126217,-122.30045838
7720,11324 19TH AVE NE,47.71094236,-122.30761822
45265,11325 8TH AVE NE,47.71116896,-122.32165509
32811,11326 14TH AVE NE,47.71118967,-122.31351585
4839,11328 SAND POINT WAY NE,47.71158793,-122.28052447
40708,11329 5TH AVE NE,47.71126577,-122.32366759
21772,1133 16TH AVE,47.61254461,-122.3118307
23301,1133 16TH AVE E,47.62968494,-122.31160963
9073,1133 18TH AVE,47.61235581,-122.309412
6615,1133 24TH AVE S,47.59204634,-122.30165502
46508,1133 32ND AVE S,47.59236698,-122.29181605
47128,1133 33RD AVE E,47.62897926,-122.28984429
29025,1133 35TH AVE,47.61261608,-122.28864388
17120,1133 MCGILVRA BLVD E,47.62959241,-122.28168288
47026,1133 N 100TH ST,47.70117144,-122.34285336
1908,1133 NW 51ST ST,47.66548876,-122.37219105
33510,1133 NW 57TH ST,47.66996383,-122.37222145
35359,11332 LAKE CITY WAY NE,47.71130417,-122.29960252
29316,11333 38TH AVE NE,47.71113385,-122.28829538
35750,11333 51ST AVE S,47.50062006,-122.27053562
6588,11334 17TH AVE NE,47.71135999,-122.30967488
33068,11334 40TH AVE NE,47.71120003,-122.28503595
38347,11335 LAKESIDE AVE NE,47.71258924,-122.27831364
41408,11335 ROOSEVELT WAY NE,47.71124872,-122.31819559
724,11336 20TH AVE NE,47.71129031,-122.30580824
33158,11336 40TH AVE NE,47.71129201,-122.28483971
35401,11336 RIVIERA PL NE,47.71276924,-122.27682957
11834,11337 14TH AVE NE,47.71146894,-122.31412591
817,11338 20TH AVE NE,47.71068618,-122.30619809
32122,11338 36TH AVE NE,47.71129409,-122.28908359
33159,11338 40TH AVE NE,47.71133955,-122.28510028
17968,11338 SUNNYSIDE AVE N,47.71147261,-122.3297972
7607,1134 19TH AVE E,47.62972337,-122.30692892
35541,1134 20TH AVE E,47.6297008,-122.30567018
45107,1134 22ND AVE E,47.62964254,-122.30323498
10206,1134 LAKESIDE AVE S,47.59242654,-122.28736244
38950,1134 N 90TH ST,47.69430829,-122.34283222
38162,11340 38TH AVE NE,47.71130797,-122.28764606
1189,11340 LAKESIDE AVE NE,47.71264625,-122.27762679
40999,11341 SAND POINT WAY NE,47.71165953,-122.2817361
7970,11343 14TH AVE NE,47.71162426,-122.31411534
34892,11343 30TH AVE NE,47.71144395,-122.29653827
10667,11343 ALTON AVE NE,47.71143297,-122.28462128
24626,11345 36TH AVE NE,47.71146887,-122.28973433
39692,11345 5TH AVE NE,47.71179056,-122.3236586
7639,11345 BARTLETT AVE NE,47.71164627,-122.28323831
27605,11345 SAND POINT WAY NE,47.71171801,-122.28186091
18200,11348 35TH AVE NE,47.71161674,-122.29037662
31246,11349 SAND POINT WAY NE,47.71215267,-122.28207717
327,1135 19TH AVE E,47.62971471,-122.30766277
25272,1135 NE CAMPUS PKWY,47.65575639,-122.3166677
50092,1135 S WEBSTER ST,47.53493219,-122.31789882
14406,11350 5TH AVE NE,47.71193975,-122.32299072
19333,11355 3RD AVE NE,47.71120085,-122.32704914
45557,11356 20TH AVE NE,47.7119105,-122.30595356
35430,11357 14TH AVE NE,47.71201819,-122.3141291
2735,1136 10TH AVE E,47.62982074,-122.31979072
33459,1136 32ND AVE S,47.59319541,-122.29148797
45122,1136 8TH AVE W,47.62985179,-122.36739679
12126,1136 N 90TH ST,47.69449967,-122.3429437
14371,1136 S ALBRO PL,47.54650878,-122.31705273
44015,1137 25TH AVE,47.61264877,-122.30031705
47040,1137 HARVARD AVE E,47.62977716,-122.322717
20156,1137 NW 56TH ST,47.66910376,-122.37249725
48199,1137 STURGUS AVE S,47.59199787,-122.31311406
3921,1138 10TH AVE E,47.62979891,-122.3199643
24885,1138 18TH AVE E,47.62982355,-122.30834215
42634,1138 N 90TH ST,47.69448898,-122.34274964
38282,1139 20TH AVE E,47.62982986,-122.30634717
17107,1139 35TH AVE,47.61272555,-122.28857276
20155,1139 NW 56TH ST,47.66911417,-122.37249756
38823,1139 NW MARKET ST,47.66838544,-122.37200692
47166,11395 5TH AVE NE,47.71177596,-122.32441481
11398,114 10TH AVE,47.60224128,-122.31880635
5971,114 16TH AVE,47.60220629,-122.31103284
18138,114 19TH AVE,47.60221301,-122.30735625
18390,114 20TH AVE,47.60218965,-122.30580773
4829,114 20TH AVE E,47.61896419,-122.3057926
29638,114 24TH AVE E,47.61949618,-122.3010277
15749,114 29TH AVE S,47.60128425,-122.29480872
31511,114 30TH AVE S,47.60115411,-122.29347934
20979,114 8TH AVE S,47.60117049,-122.32225675
43275,114 MADRONA PL E,47.61893968,-122.2848961
8862,114 MAIDEN LN E,47.61841295,-122.28414713
33790,114 N 39TH ST,47.65436668,-122.35652529
17240,114 N 41ST ST,47.65652507,-122.35683003
43007,114 N 48TH ST,47.66382024,-122.356381
22317,114 N 73RD ST,47.68204412,-122.35723401
36077,114 N 80TH ST,47.68711573,-122.35727054
34270,114 N 82ND ST,47.6885582,-122.35726943
36463,114 NE 52ND ST,47.66665814,-122.32788436
42220,114 NE 55TH ST,47.66884152,-122.32756181
42961,114 NW 45TH ST,47.66169,-122.35852343
41315,114 NW 59TH ST,47.67186669,-122.3583881
10760,114 NW 84TH ST,47.69000431,-122.35868635
3990,114 NW CANAL ST,47.65249823,-122.35836485
43411,114 PIKE ST,47.60935526,-122.33956246
39177,114 RAYE ST,47.64337775,-122.35494463
26655,114 REPUBLICAN ST,47.62361985,-122.35456609
24089,1140 10TH AVE E,47.62989622,-122.31997845
20948,1140 14TH AVE S,47.59166516,-122.31464423
10423,1140 18TH AVE,47.61269101,-122.30851702
44121,1140 24TH AVE,47.6127497,-122.3012188
32798,1140 ALKI AVE SW,47.59491128,-122.38655868
47435,1140 N 94TH ST,47.69743679,-122.34351175
37392,1140 NE BOAT ST,47.65252494,-122.31561057
34484,1140 NW 53RD ST,47.66738638,-122.3718604
44184,11403 34TH AVE SW,47.50118108,-122.37583888
40582,11404 34TH AVE SW,47.5011371,-122.37526708
25400,1141 37TH AVE E,47.62975262,-122.28588261
46080,1141 M L KING JR WAY,47.61256623,-122.29647666
45635,1141 NW 56TH ST,47.66919994,-122.37263602
43423,11410 RENTON AVE S,47.50087936,-122.24957776
9548,11411 MARINE VIEW DR SW,47.50018429,-122.37924637
49822,11415 12TH AVE NE,47.71157662,-122.31547129
49180,11417 69TH PL S,47.5019532,-122.2476215
20446,11419 ARROYO BEACH PL SW,47.50085103,-122.38258091
24087,1142 10TH AVE E,47.63003475,-122.31999104
33563,1142 16TH AVE E,47.62996286,-122.31095205
5259,1142 NW 58TH ST,47.67108846,-122.37265569
16130,11423 CRESTWOOD DR S,47.50030359,-122.24395952
20508,11428 WOODLEY AVE S,47.50010891,-122.24229039
33429,1143 FEDERAL AVE E,47.62994401,-122.31945647
41367,1143 NW 45TH ST,47.66124033,-122.37198431
7271,1143 NW 56TH ST,47.66919994,-122.37263602
32791,1143 NW 57TH ST,47.66999683,-122.37265932
29191,11430 69TH PL S,47.50122744,-122.24767562
40800,11430 71ST PL S,47.50123146,-122.2456259
23965,11431 ARROYO BEACH PL SW,47.50070117,-122.38214374
4193,11435 MARINE VIEW DR SW,47.49971394,-122.37859392
39086,11437 ARROYO BEACH PL SW,47.50053447,-122.38205014
26597,1144 10TH AVE E,47.62989196,-122.31979327
20912,1144 14TH AVE S,47.59162537,-122.31448198
49726,1144 EASTLAKE AVE E,47.62958921,-122.32827144
12648,1144 ELLIOTT AVE W,47.6298412,-122.37207318
3129,1144 N 100TH ST,47.70197129,-122.34220249
13331,1144 NW 52ND ST,47.66668328,-122.37253902
34832,1144 NW 53RD ST,47.66742747,-122.37303692
9658,1144 NW 57TH ST,47.67036544,-122.37283144
44508,11441 MARINE VIEW DR SW,47.49962045,-122.37838156
40085,11446 71ST PL S,47.50060423,-122.24549849
31599,1145 10TH AVE E,47.62993258,-122.32055047
37727,1145 19TH AVE E,47.63004145,-122.30777614
11723,1145 33RD AVE E,47.62929585,-122.28993739
49214,1145 BROADWAY,47.61244623,-122.32141613
1231,1145 PARKSIDE DR E,47.62981265,-122.29125798
24153,11451 71ST PL S,47.50031405,-122.24604496
24088,1146 10TH AVE E,47.63003731,-122.31977156
36742,1146 16TH AVE E,47.63007575,-122.31093473
10285,1146 18TH AVE E,47.63005261,-122.308323
14399,1146 20TH AVE E,47.63006476,-122.30570148
32478,1146 N 77TH ST,47.68497649,-122.34239154
1077,1146 NW 58TH ST,47.67107205,-122.37281515
20191,1147 16TH AVE E,47.63007804,-122.31159949
48279,1147 N 81ST ST,47.68742705,-122.34223251
12243,1148 NW LEARY WAY,47.66389751,-122.37308153
24271,1149 N 98TH ST,47.70030612,-122.3424698
47193,115 15TH AVE E,47.6189872,-122.31317279
18211,115 16TH AVE,47.60217225,-122.31196247
26498,115 18TH AVE E,47.61900366,-122.30912814
20188,115 20TH AVE,47.60214204,-122.30660606
46324,115 21ST AVE E,47.61902806,-122.30513221
37570,115 30TH AVE,47.60215634,-122.29409949
26186,115 33RD AVE E,47.61887951,-122.29049119
43999,115 37TH AVE E,47.61882668,-122.28674906
45660,115 39TH AVE E,47.61802228,-122.2828882
39387,115 AURORA AVE N,47.61933082,-122.34414472
30685,115 BELL ST,47.61362912,-122.34571049
18591,115 BELMONT AVE E,47.61900866,-122.32433899
10211,115 BLAINE ST,47.63469826,-122.35496161
